{"type": "FeatureCollection", "features": [{"type": "Feature", "geometry": {"type": "Point", "coordinates": [-46.671108, -23.554022]}, "properties": {"name": 1, "address": "Avenida Doutor Arnaldo"}}, {"type": "Feature", "geometry": {"type": "Point", "coordinates": [-46.691138, -23.546499]}, "properties": {"name": 2, "address": "Bicicletário - Metrô Vila Madalena"}}, {"type": "Feature", "geometry": {"type": "Point", "coordinates": [-46.660205, -23.558094]}, "properties": {"name": 3, "address": "Rua Augusta"}}, {"type": "Feature", "geometry": {"type": "Point", "coordinates": [-46.641239, -23.635039]}, "properties": {"name": 4, "address": "Avenida Engenheiro Armando De Arruda Pereira"}}, {"type": "Feature", "geometry": {"type": "Point", "coordinates": [-46.641026, -23.645996]}, "properties": {"name": 5, "address": "Avenida Engenheiro Armando De Arruda Pereira"}}, {"type": "Feature", "geometry": {"type": "Point", "coordinates": [-46.640936, -23.625882]}, "properties": {"name": 6, "address": "Avenida Jabaquara"}}, {"type": "Feature", "geometry": {"type": "Point", "coordinates": [-46.639139, -23.618245]}, "properties": {"name": 7, "address": "Avenida Jabaquara"}}, {"type": "Feature", "geometry": {"type": "Point", "coordinates": [-46.637918, -23.610583]}, "properties": {"name": 8, "address": "Avenida Jabaquara"}}, {"type": "Feature", "geometry": {"type": "Point", "coordinates": [-46.636634, -23.598541]}, "properties": {"name": 9, "address": "Rua Domingos De Morais"}}, {"type": "Feature", "geometry": {"type": "Point", "coordinates": [-46.634677, -23.589342]}, "properties": {"name": 10, "address": "Lanchinho Restaurante"}}, {"type": "Feature", "geometry": {"type": "Point", "coordinates": [-46.649027, -23.567615]}, "properties": {"name": 11, "address": "Avenida Brigadeiro Luis Antonio"}}, {"type": "Feature", "geometry": {"type": "Point", "coordinates": [-46.653893, -23.56357]}, "properties": {"name": 12, "address": "Avenida Paulista"}}, {"type": "Feature", "geometry": {"type": "Point", "coordinates": [-46.638489, -23.581203]}, "properties": {"name": 13, "address": "Rua Vergueiro"}}, {"type": "Feature", "geometry": {"type": "Point", "coordinates": [-46.6407, -23.5754]}, "properties": {"name": 14, "address": "Exposição Castelo Rá-Tim-Bum"}}, {"type": "Feature", "geometry": {"type": "Point", "coordinates": [-46.639882, -23.568514]}, "properties": {"name": 15, "address": "Rua Vergueiro"}}, {"type": "Feature", "geometry": {"type": "Point", "coordinates": [-46.638534, -23.561435]}, "properties": {"name": 16, "address": "Avenida Da Liberdade"}}, {"type": "Feature", "geometry": {"type": "Point", "coordinates": [-46.657264, -23.533163]}, "properties": {"name": 17, "address": "Hirota Supermercados"}}, {"type": "Feature", "geometry": {"type": "Point", "coordinates": [-46.649009, -23.538095]}, "properties": {"name": 18, "address": "Bicicletário - Metrô Santa Cecília"}}, {"type": "Feature", "geometry": {"type": "Point", "coordinates": [-46.642464, -23.54421]}, "properties": {"name": 19, "address": "Praça Da República"}}, {"type": "Feature", "geometry": {"type": "Point", "coordinates": [-46.6392, -23.5478]}, "properties": {"name": 20, "address": "Bicicletário"}}, {"type": "Feature", "geometry": {"type": "Point", "coordinates": [-46.635581, -23.555211]}, "properties": {"name": 21, "address": "Estação Liberdade (Metrô)"}}, {"type": "Feature", "geometry": {"type": "Point", "coordinates": [-46.633305, -23.5505]}, "properties": {"name": 22, "address": "Subway"}}, {"type": "Feature", "geometry": {"type": "Point", "coordinates": [-46.6342, -23.5441]}, "properties": {"name": 23, "address": "Bauducco"}}, {"type": "Feature", "geometry": {"type": "Point", "coordinates": [-46.626281, -23.549742]}, "properties": {"name": 24, "address": "Mc Donald's Liba"}}, {"type": "Feature", "geometry": {"type": "Point", "coordinates": [-46.6343, -23.5366]}, "properties": {"name": 25, "address": "Rua Brigadeiro Tobias"}}, {"type": "Feature", "geometry": {"type": "Point", "coordinates": [-46.632672, -23.531324]}, "properties": {"name": 26, "address": "Avenida Tiradentes"}}, {"type": "Feature", "geometry": {"type": "Point", "coordinates": [-46.6292, -23.5254]}, "properties": {"name": 27, "address": "Avenida Tiradentes"}}, {"type": "Feature", "geometry": {"type": "Point", "coordinates": [-46.607246, -23.546398]}, "properties": {"name": 28, "address": "Extra Facil São João"}}, {"type": "Feature", "geometry": {"type": "Point", "coordinates": [-46.589676, -23.542922]}, "properties": {"name": 29, "address": "Estação Belém (Metrô)"}}, {"type": "Feature", "geometry": {"type": "Point", "coordinates": [-46.625149, -23.51624]}, "properties": {"name": 30, "address": "Avenida Cruzeiro Do Sul"}}, {"type": "Feature", "geometry": {"type": "Point", "coordinates": [-46.624897, -23.508727]}, "properties": {"name": 31, "address": "Avenida Cruzeiro Do Sul"}}, {"type": "Feature", "geometry": {"type": "Point", "coordinates": [-46.624716, -23.502716]}, "properties": {"name": 32, "address": "Escola Técnica Frei Galvão"}}, {"type": "Feature", "geometry": {"type": "Point", "coordinates": [-46.617354, -23.492734]}, "properties": {"name": 33, "address": "Avenida Leoncio De Magalhaes"}}, {"type": "Feature", "geometry": {"type": "Point", "coordinates": [-46.608877, -23.487111]}, "properties": {"name": 34, "address": "Paraciclo - Estação Parada Inglesa"}}, {"type": "Feature", "geometry": {"type": "Point", "coordinates": [-46.603209, -23.480049]}, "properties": {"name": 35, "address": "K2 Smart Tucuruvi"}}, {"type": "Feature", "geometry": {"type": "Point", "coordinates": [-46.564392, -23.537843]}, "properties": {"name": 36, "address": "Lounge EURO SPFW"}}, {"type": "Feature", "geometry": {"type": "Point", "coordinates": [-46.54267, -23.53354]}, "properties": {"name": 37, "address": "Pet Shop Vida Animal"}}, {"type": "Feature", "geometry": {"type": "Point", "coordinates": [-46.530904, -23.531901]}, "properties": {"name": 38, "address": "Avenida Conde De Frontin"}}, {"type": "Feature", "geometry": {"type": "Point", "coordinates": [-46.516673, -23.529319]}, "properties": {"name": 39, "address": "Radial Leste"}}, {"type": "Feature", "geometry": {"type": "Point", "coordinates": [-46.501715, -23.531079]}, "properties": {"name": 40, "address": "Clube 8"}}, {"type": "Feature", "geometry": {"type": "Point", "coordinates": [-46.484833, -23.540068]}, "properties": {"name": 41, "address": "Alvim Doces"}}, {"type": "Feature", "geometry": {"type": "Point", "coordinates": [-46.520092, -23.498281]}, "properties": {"name": 42, "address": "Rua Doutor Assis Ribeiro"}}, {"type": "Feature", "geometry": {"type": "Point", "coordinates": [-46.471973, -23.542411]}, "properties": {"name": 43, "address": "Lanchonete Uga Uga"}}, {"type": "Feature", "geometry": {"type": "Point", "coordinates": [-46.482828, -23.485166]}, "properties": {"name": 44, "address": "Sense Skate Shop"}}, {"type": "Feature", "geometry": {"type": "Point", "coordinates": [-46.447993, -23.541714]}, "properties": {"name": 45, "address": "Estação Dom Bosco"}}, {"type": "Feature", "geometry": {"type": "Point", "coordinates": [-46.431683, -23.53912]}, "properties": {"name": 46, "address": "Pista de Corrida e Caminhada"}}, {"type": "Feature", "geometry": {"type": "Point", "coordinates": [-46.383668, -23.554322]}, "properties": {"name": 47, "address": "Rua Pascoal Lobosco"}}, {"type": "Feature", "geometry": {"type": "Point", "coordinates": [-46.415633, -23.542298]}, "properties": {"name": 48, "address": "Plataforma 1 / 2 (Luz - Estudantes) Da Cptm"}}, {"type": "Feature", "geometry": {"type": "Point", "coordinates": [-46.402304, -23.493989]}, "properties": {"name": 49, "address": "Estação Itaim Paulista (CPTM)"}}, {"type": "Feature", "geometry": {"type": "Point", "coordinates": [-46.368207, -23.540688]}, "properties": {"name": 50, "address": "Rua Godofredo Novaes"}}, {"type": "Feature", "geometry": {"type": "Point", "coordinates": [-46.34325, -23.525211]}, "properties": {"name": 51, "address": "Terminal De Onibus Poá"}}, {"type": "Feature", "geometry": {"type": "Point", "coordinates": [-46.364469, -23.478636]}, "properties": {"name": 52, "address": "Avenida Eldorado"}}, {"type": "Feature", "geometry": {"type": "Point", "coordinates": [-46.332803, -23.525497]}, "properties": {"name": 53, "address": "Mega Pastel"}}, {"type": "Feature", "geometry": {"type": "Point", "coordinates": [-46.309229, -23.533521]}, "properties": {"name": 54, "address": "Rua Major Pinheiro Froes"}}, {"type": "Feature", "geometry": {"type": "Point", "coordinates": [-46.719702, -23.655909]}, "properties": {"name": 55, "address": "Avenida Das Nacoes Unidas"}}, {"type": "Feature", "geometry": {"type": "Point", "coordinates": [-46.702213, -23.677465]}, "properties": {"name": 56, "address": "Assembléia de Deus Promessas Zona Sul"}}, {"type": "Feature", "geometry": {"type": "Point", "coordinates": [-46.71097, -23.66343]}, "properties": {"name": 57, "address": "Estação Socorro (CPTM)"}}, {"type": "Feature", "geometry": {"type": "Point", "coordinates": [-46.712111, -23.627599]}, "properties": {"name": 58, "address": "Sp-015"}}, {"type": "Feature", "geometry": {"type": "Point", "coordinates": [-46.701677, -23.621533]}, "properties": {"name": 59, "address": "Sp-015"}}, {"type": "Feature", "geometry": {"type": "Point", "coordinates": [-46.696825, -23.604669]}, "properties": {"name": 60, "address": "Sp-015"}}, {"type": "Feature", "geometry": {"type": "Point", "coordinates": [-46.692871, -23.593185]}, "properties": {"name": 61, "address": "Sp-015"}}, {"type": "Feature", "geometry": {"type": "Point", "coordinates": [-46.691293, -23.585337]}, "properties": {"name": 62, "address": "Sp-015"}}, {"type": "Feature", "geometry": {"type": "Point", "coordinates": [-46.983928, -23.5307]}, "properties": {"name": 63, "address": "Rua Ciriaco Antonio Oliveira"}}, {"type": "Feature", "geometry": {"type": "Point", "coordinates": [-46.714999, -23.504206]}, "properties": {"name": 64, "address": "Comunidade Hebrom"}}, {"type": "Feature", "geometry": {"type": "Point", "coordinates": [-46.703952, -23.517538]}, "properties": {"name": 65, "address": "Rua Engenheiro Fox"}}, {"type": "Feature", "geometry": {"type": "Point", "coordinates": [-46.700124, -23.519585]}, "properties": {"name": 66, "address": "Viaduto Da Lapa"}}, {"type": "Feature", "geometry": {"type": "Point", "coordinates": [-46.689237, -23.521231]}, "properties": {"name": 67, "address": "Estação Água Branca"}}, {"type": "Feature", "geometry": {"type": "Point", "coordinates": [-46.666547, -23.525317]}, "properties": {"name": 68, "address": "Droga Reims"}}, {"type": "Feature", "geometry": {"type": "Point", "coordinates": [-46.754465, -23.404054]}, "properties": {"name": 69, "address": "Travessa Cambaratiba"}}, {"type": "Feature", "geometry": {"type": "Point", "coordinates": [-46.738483, -23.455502]}, "properties": {"name": 70, "address": "Avenida Doutor Felipe Pinel"}}, {"type": "Feature", "geometry": {"type": "Point", "coordinates": [-46.744207, -23.470038]}, "properties": {"name": 71, "address": "Acesso a Estação Vila Clarice"}}, {"type": "Feature", "geometry": {"type": "Point", "coordinates": [-46.752822, -23.367176]}, "properties": {"name": 72, "address": "Praça Emancipação"}}, {"type": "Feature", "geometry": {"type": "Point", "coordinates": [-46.727614, -23.332181]}, "properties": {"name": 73, "address": "Russi Supermercados"}}, {"type": "Feature", "geometry": {"type": "Point", "coordinates": [-46.722853, -23.310582]}, "properties": {"name": 74, "address": "Praça Domingos Antônio Lopes"}}, {"type": "Feature", "geometry": {"type": "Point", "coordinates": [-46.589343, -23.592982]}, "properties": {"name": 75, "address": "Estação Tamanduateí (CPTM)"}}, {"type": "Feature", "geometry": {"type": "Point", "coordinates": [-46.57033, -23.610281]}, "properties": {"name": 76, "address": "Rua Serafim Constantino"}}, {"type": "Feature", "geometry": {"type": "Point", "coordinates": [-46.543623, -23.626196]}, "properties": {"name": 77, "address": "Viaduto Juvenal Fontanella"}}, {"type": "Feature", "geometry": {"type": "Point", "coordinates": [-46.53686, -23.638762]}, "properties": {"name": 78, "address": "Avenida Presidente Roosevelt"}}, {"type": "Feature", "geometry": {"type": "Point", "coordinates": [-46.414805, -23.713586]}, "properties": {"name": 79, "address": "Rua Alferes Botacin"}}, {"type": "Feature", "geometry": {"type": "Point", "coordinates": [-46.392026, -23.742981]}, "properties": {"name": 80, "address": "Avenida Guilherme Pinto Monteiro"}}, {"type": "Feature", "geometry": {"type": "Point", "coordinates": [-46.490542, -23.65851]}, "properties": {"name": 81, "address": "Estação Capuava (CPTM)"}}, {"type": "Feature", "geometry": {"type": "Point", "coordinates": [-46.461769, -23.668016]}, "properties": {"name": 82, "address": "Estação Mauá (CPTM)"}}, {"type": "Feature", "geometry": {"type": "Point", "coordinates": [-46.528568, -23.652472]}, "properties": {"name": 83, "address": "Acesso Ao Sto"}}, {"type": "Feature", "geometry": {"type": "Point", "coordinates": [-46.449263, -23.691321]}, "properties": {"name": 84, "address": "Avenida Capitão João"}}, {"type": "Feature", "geometry": {"type": "Point", "coordinates": [-46.640763, -23.532964]}, "properties": {"name": 85, "address": "Estação Júlio Prestes (CPTM)"}}, {"type": "Feature", "geometry": {"type": "Point", "coordinates": [-46.635433, -23.535106]}, "properties": {"name": 86, "address": "Celmax Metro Luz Amarela"}}, {"type": "Feature", "geometry": {"type": "Point", "coordinates": [-46.608419, -23.557799]}, "properties": {"name": 87, "address": "Lixeira Ecológica Da Mooca"}}, {"type": "Feature", "geometry": {"type": "Point", "coordinates": [-46.59666, -23.582356]}, "properties": {"name": 88, "address": "Estação Ipiranga (CPTM)"}}, {"type": "Feature", "geometry": {"type": "Point", "coordinates": [-46.5767, -23.5403]}, "properties": {"name": 89, "address": "Mei Mei"}}, {"type": "Feature", "geometry": {"type": "Point", "coordinates": [-46.947651, -23.545115]}, "properties": {"name": 90, "address": "Rodovia Rene Benedito Da Silva"}}, {"type": "Feature", "geometry": {"type": "Point", "coordinates": [-46.935416, -23.545728]}, "properties": {"name": 91, "address": "Estação Itapevi (CPTM)"}}, {"type": "Feature", "geometry": {"type": "Point", "coordinates": [-46.928291, -23.535245]}, "properties": {"name": 92, "address": "Rua Osvaldo Francisco Messias"}}, {"type": "Feature", "geometry": {"type": "Point", "coordinates": [-46.91728, -23.52908]}, "properties": {"name": 93, "address": "Rua Francisco Jose Longo"}}, {"type": "Feature", "geometry": {"type": "Point", "coordinates": [-46.902507, -23.527721]}, "properties": {"name": 94, "address": "Bicicletário CPTM - Estação Jandira"}}, {"type": "Feature", "geometry": {"type": "Point", "coordinates": [-46.893491, -23.523568]}, "properties": {"name": 95, "address": "Rua Fernão Dias Paes Leme"}}, {"type": "Feature", "geometry": {"type": "Point", "coordinates": [-46.88929, -23.514306]}, "properties": {"name": 96, "address": "Estrada Municipal"}}, {"type": "Feature", "geometry": {"type": "Point", "coordinates": [-46.875113, -23.512644]}, "properties": {"name": 97, "address": "Lopes Supermercados"}}, {"type": "Feature", "geometry": {"type": "Point", "coordinates": [-46.858801, -23.516859]}, "properties": {"name": 98, "address": "Operação NET - CSU Contact"}}, {"type": "Feature", "geometry": {"type": "Point", "coordinates": [-46.84807, -23.516347]}, "properties": {"name": 99, "address": "Estação Santa Terezinha (CPTM)"}}, {"type": "Feature", "geometry": {"type": "Point", "coordinates": [-46.835417, -23.518744]}, "properties": {"name": 100, "address": "Nikoyama Central Das Ferragens"}}, {"type": "Feature", "geometry": {"type": "Point", "coordinates": [-46.815998, -23.523639]}, "properties": {"name": 101, "address": "Avenida Dos Autonomistas"}}, {"type": "Feature", "geometry": {"type": "Point", "coordinates": [-46.807085, -23.522871]}, "properties": {"name": 102, "address": "Estação Quitaúna"}}, {"type": "Feature", "geometry": {"type": "Point", "coordinates": [-46.796059, -23.52599]}, "properties": {"name": 103, "address": "Rua Adolfo Marchiolli"}}, {"type": "Feature", "geometry": {"type": "Point", "coordinates": [-46.776007, -23.527834]}, "properties": {"name": 104, "address": "Praça Antônio Menck"}}, {"type": "Feature", "geometry": {"type": "Point", "coordinates": [-46.760577, -23.530423]}, "properties": {"name": 105, "address": "Viaduto Unico Gallafrio"}}, {"type": "Feature", "geometry": {"type": "Point", "coordinates": [-46.741543, -23.538372]}, "properties": {"name": 106, "address": "Sp-015"}}, {"type": "Feature", "geometry": {"type": "Point", "coordinates": [-46.732079, -23.546718]}, "properties": {"name": 107, "address": "Speed Bike"}}, {"type": "Feature", "geometry": {"type": "Point", "coordinates": [-46.737662, -23.523749]}, "properties": {"name": 108, "address": "Rua Major Paladino"}}, {"type": "Feature", "geometry": {"type": "Point", "coordinates": [-46.726058, -23.488464]}, "properties": {"name": 109, "address": "Estação Pirituba"}}, {"type": "Feature", "geometry": {"type": "Point", "coordinates": [-46.703082, -23.566631]}, "properties": {"name": 110, "address": "Bolacha & Cia"}}, {"type": "Feature", "geometry": {"type": "Point", "coordinates": [-46.712434, -23.55757]}, "properties": {"name": 111, "address": "Sp-015"}}, {"type": "Feature", "geometry": {"type": "Point", "coordinates": [-46.698634, -23.573822]}, "properties": {"name": 112, "address": "Cine Planning"}}, {"type": "Feature", "geometry": {"type": "Point", "coordinates": [-46.721665, -23.518787]}, "properties": {"name": 113, "address": "Estação Domingos de Moraes (CPTM)"}}, {"type": "Feature", "geometry": {"type": "Point", "coordinates": [-46.742046, -23.284893]}, "properties": {"name": 114, "address": "Rua Domerson Romano"}}, {"type": "Feature", "geometry": {"type": "Point", "coordinates": [-46.767932, -23.23541]}, "properties": {"name": 115, "address": "Rua Bela Vista"}}, {"type": "Feature", "geometry": {"type": "Point", "coordinates": [-46.784873, -23.207264]}, "properties": {"name": 116, "address": "Rua Nossa Senhora Do Rosário"}}, {"type": "Feature", "geometry": {"type": "Point", "coordinates": [-46.829012, -23.208824]}, "properties": {"name": 117, "address": "Avenida Marginal Do Rio Jundiaí"}}, {"type": "Feature", "geometry": {"type": "Point", "coordinates": [-46.8719, -23.195643]}, "properties": {"name": 118, "address": "Avenida União Dos Ferroviários"}}, {"type": "Feature", "geometry": {"type": "Point", "coordinates": [-46.348456, -23.48577]}, "properties": {"name": 119, "address": "Estação Itaquaquecetuba (CPTM)"}}, {"type": "Feature", "geometry": {"type": "Point", "coordinates": [-46.256308, -23.542687]}, "properties": {"name": 120, "address": "Avenida Dona Aurea Martins Dos Anjos"}}, {"type": "Feature", "geometry": {"type": "Point", "coordinates": [-46.225325, -23.536255]}, "properties": {"name": 121, "address": "Estação Braz Cubas"}}, {"type": "Feature", "geometry": {"type": "Point", "coordinates": [-46.197135, -23.521185]}, "properties": {"name": 122, "address": "Avenida Governador Adhemar De Barros"}}, {"type": "Feature", "geometry": {"type": "Point", "coordinates": [-46.18493, -23.515696]}, "properties": {"name": 123, "address": "Praça Doutor Albert Sabin"}}, {"type": "Feature", "geometry": {"type": "Point", "coordinates": [-46.638455, -23.581388]}, "properties": {"name": 124, "address": "Rua Vergueiro"}}, {"type": "Feature", "geometry": {"type": "Point", "coordinates": [-46.666651, -23.525592]}, "properties": {"name": 125, "address": "Droga Reims"}}, {"type": "Feature", "geometry": {"type": "Point", "coordinates": [-46.666803, -23.525703]}, "properties": {"name": 126, "address": "O Boticário"}}, {"type": "Feature", "geometry": {"type": "Point", "coordinates": [-46.616228, -23.545461]}, "properties": {"name": 127, "address": "Estação Brás (CPTM)"}}, {"type": "Feature", "geometry": {"type": "Point", "coordinates": [-46.6408, -23.5753]}, "properties": {"name": 128, "address": "Rua Vergueiro"}}, {"type": "Feature", "geometry": {"type": "Point", "coordinates": [-46.633505, -23.550611]}, "properties": {"name": 129, "address": "TjSP - Pátio Do Colégio"}}, {"type": "Feature", "geometry": {"type": "Point", "coordinates": [-46.710305, -23.654465]}, "properties": {"name": 130, "address": "Avenida Padre José Maria"}}, {"type": "Feature", "geometry": {"type": "Point", "coordinates": [-46.721095, -23.655575]}, "properties": {"name": 131, "address": "Pit Stop - Sto Amaro"}}, {"type": "Feature", "geometry": {"type": "Point", "coordinates": [-46.734112, -23.643975]}, "properties": {"name": 132, "address": "Estação Giovanni Gronchi (Metrô)"}}, {"type": "Feature", "geometry": {"type": "Point", "coordinates": [-46.745882, -23.640331]}, "properties": {"name": 133, "address": "Rua Inacio Preto De Moraes"}}, {"type": "Feature", "geometry": {"type": "Point", "coordinates": [-46.758878, -23.648987]}, "properties": {"name": 134, "address": "Terminal Metropolitano Campo Limpo (EMTU/Metro)"}}, {"type": "Feature", "geometry": {"type": "Point", "coordinates": [-46.768691, -23.659955]}, "properties": {"name": 135, "address": "Estrada De Itapecerica"}}, {"type": "Feature", "geometry": {"type": "Point", "coordinates": [-46.569402, -23.574427]}, "properties": {"name": 136, "address": "Rua Montesina"}}, {"type": "Feature", "geometry": {"type": "Point", "coordinates": [-46.568833, -23.5724]}, "properties": {"name": 137, "address": "Avenida Sapopemba"}}, {"type": "Feature", "geometry": {"type": "Point", "coordinates": [-46.578492, -23.563212]}, "properties": {"name": 138, "address": "Rua Piracununga"}}, {"type": "Feature", "geometry": {"type": "Point", "coordinates": [-46.580065, -23.566052]}, "properties": {"name": 139, "address": "Rua Piracununga"}}, {"type": "Feature", "geometry": {"type": "Point", "coordinates": [-46.583815, -23.554175]}, "properties": {"name": 140, "address": "Rua Fernando Falcao"}}, {"type": "Feature", "geometry": {"type": "Point", "coordinates": [-46.580971, -23.556901]}, "properties": {"name": 141, "address": "Rua Tie"}}, {"type": "Feature", "geometry": {"type": "Point", "coordinates": [-46.576797, -23.562103]}, "properties": {"name": 142, "address": "Rua Diogo Lopes"}}, {"type": "Feature", "geometry": {"type": "Point", "coordinates": [-46.579, -23.56391]}, "properties": {"name": 143, "address": "Rua Piracununga"}}, {"type": "Feature", "geometry": {"type": "Point", "coordinates": [-46.578067, -23.568966]}, "properties": {"name": 144, "address": "Rua Corumbaiba"}}, {"type": "Feature", "geometry": {"type": "Point", "coordinates": [-46.577832, -23.557143]}, "properties": {"name": 145, "address": "Avenida Salim Farah Maluf (Local)"}}, {"type": "Feature", "geometry": {"type": "Point", "coordinates": [-46.58102, -23.567385]}, "properties": {"name": 146, "address": "Rua Campo Largo"}}, {"type": "Feature", "geometry": {"type": "Point", "coordinates": [-46.589145, -23.56338]}, "properties": {"name": 147, "address": "Rua Lituania"}}, {"type": "Feature", "geometry": {"type": "Point", "coordinates": [-46.586582, -23.564543]}, "properties": {"name": 148, "address": "Rua Lituania"}}, {"type": "Feature", "geometry": {"type": "Point", "coordinates": [-46.585566, -23.565979]}, "properties": {"name": 149, "address": "Rua Barretos"}}, {"type": "Feature", "geometry": {"type": "Point", "coordinates": [-46.576371, -23.571395]}, "properties": {"name": 150, "address": "Rua Corumbaiba"}}, {"type": "Feature", "geometry": {"type": "Point", "coordinates": [-46.557136, -23.569279]}, "properties": {"name": 151, "address": "Avenida Luca"}}, {"type": "Feature", "geometry": {"type": "Point", "coordinates": [-46.580169, -23.567849]}, "properties": {"name": 152, "address": "Rua Piracununga"}}, {"type": "Feature", "geometry": {"type": "Point", "coordinates": [-46.586789, -23.564479]}, "properties": {"name": 153, "address": "Rua Lituania"}}, {"type": "Feature", "geometry": {"type": "Point", "coordinates": [-46.576824, -23.569984]}, "properties": {"name": 154, "address": "Rua Corumbaiba"}}, {"type": "Feature", "geometry": {"type": "Point", "coordinates": [-46.582756, -23.536565]}, "properties": {"name": 155, "address": "Avenida Salim Farah Maluf (Local)"}}, {"type": "Feature", "geometry": {"type": "Point", "coordinates": [-46.577654, -23.552231]}, "properties": {"name": 156, "address": "Avenida Salim Farah Maluf"}}, {"type": "Feature", "geometry": {"type": "Point", "coordinates": [-46.576657, -23.561701]}, "properties": {"name": 157, "address": "Avenida Salim Farah Maluf"}}, {"type": "Feature", "geometry": {"type": "Point", "coordinates": [-46.584977, -23.55292]}, "properties": {"name": 158, "address": "Rua Siqueira Bueno"}}, {"type": "Feature", "geometry": {"type": "Point", "coordinates": [-46.574672, -23.55289]}, "properties": {"name": 159, "address": "Rua Sebastiao Barbosa"}}, {"type": "Feature", "geometry": {"type": "Point", "coordinates": [-46.572321, -23.552772]}, "properties": {"name": 160, "address": "Praça Ituzaingó"}}, {"type": "Feature", "geometry": {"type": "Point", "coordinates": [-46.579962, -23.565916]}, "properties": {"name": 161, "address": "Rua Piracununga"}}, {"type": "Feature", "geometry": {"type": "Point", "coordinates": [-46.577141, -23.556733]}, "properties": {"name": 162, "address": "Canela Pneus"}}, {"type": "Feature", "geometry": {"type": "Point", "coordinates": [-46.714208, -23.536013]}, "properties": {"name": 163, "address": "Rua Pio Xi"}}, {"type": "Feature", "geometry": {"type": "Point", "coordinates": [-46.713555, -23.536725]}, "properties": {"name": 164, "address": "Rua São Domingos Sávio"}}, {"type": "Feature", "geometry": {"type": "Point", "coordinates": [-46.713908, -23.546372]}, "properties": {"name": 165, "address": "Rua Belini"}}, {"type": "Feature", "geometry": {"type": "Point", "coordinates": [-46.71711, -23.549875]}, "properties": {"name": 166, "address": "Avenida Arruda Botelho"}}, {"type": "Feature", "geometry": {"type": "Point", "coordinates": [-46.718806, -23.552961]}, "properties": {"name": 167, "address": "Avenida Arruda Botelho"}}, {"type": "Feature", "geometry": {"type": "Point", "coordinates": [-46.711035, -23.551447]}, "properties": {"name": 168, "address": "Avenida Professor Fonseca Rodrigues"}}, {"type": "Feature", "geometry": {"type": "Point", "coordinates": [-46.709414, -23.551015]}, "properties": {"name": 169, "address": "Avenida São Gualter"}}, {"type": "Feature", "geometry": {"type": "Point", "coordinates": [-46.708307, -23.552647]}, "properties": {"name": 170, "address": "Rua Dona Elisa De Moraes Mendes"}}, {"type": "Feature", "geometry": {"type": "Point", "coordinates": [-46.708663, -23.552858]}, "properties": {"name": 171, "address": "Praca Panamericana"}}, {"type": "Feature", "geometry": {"type": "Point", "coordinates": [-46.719629, -23.538088]}, "properties": {"name": 172, "address": "Avenida Padre Pereira De Andrade"}}, {"type": "Feature", "geometry": {"type": "Point", "coordinates": [-46.722526, -23.551829]}, "properties": {"name": 173, "address": "Avenida Das Nacoes Unidas"}}, {"type": "Feature", "geometry": {"type": "Point", "coordinates": [-46.708577, -23.547571]}, "properties": {"name": 174, "address": "Rua Doutor Alberto Seabra"}}, {"type": "Feature", "geometry": {"type": "Point", "coordinates": [-46.705693, -23.55511]}, "properties": {"name": 175, "address": "Avenida Pedroso De Morais"}}, {"type": "Feature", "geometry": {"type": "Point", "coordinates": [-46.717836, -23.550293]}, "properties": {"name": 176, "address": "Avenida Arruda Botelho"}}, {"type": "Feature", "geometry": {"type": "Point", "coordinates": [-46.796329, -23.44247]}, "properties": {"name": 177, "address": "Estrada Coronel José Gladiador"}}, {"type": "Feature", "geometry": {"type": "Point", "coordinates": [-46.790202, -23.440321]}, "properties": {"name": 178, "address": "Avenida Felippo Sturba"}}, {"type": "Feature", "geometry": {"type": "Point", "coordinates": [-46.789114, -23.431887]}, "properties": {"name": 179, "address": "Rua Diego Velasquez"}}, {"type": "Feature", "geometry": {"type": "Point", "coordinates": [-46.793122, -23.431556]}, "properties": {"name": 180, "address": "Rua Nestor Gomes"}}, {"type": "Feature", "geometry": {"type": "Point", "coordinates": [-46.79447, -23.430036]}, "properties": {"name": 181, "address": "Rua Alberto Gentili"}}, {"type": "Feature", "geometry": {"type": "Point", "coordinates": [-46.805737, -23.43718]}, "properties": {"name": 182, "address": "Avenida Da Solidariedade"}}, {"type": "Feature", "geometry": {"type": "Point", "coordinates": [-46.807039, -23.43923]}, "properties": {"name": 183, "address": "Avenida Da Solidariedade"}}, {"type": "Feature", "geometry": {"type": "Point", "coordinates": [-46.796187, -23.442419]}, "properties": {"name": 184, "address": "Estrada Coronel José Gladiador"}}, {"type": "Feature", "geometry": {"type": "Point", "coordinates": [-46.789962, -23.43906]}, "properties": {"name": 185, "address": "Avenida Felippo Sturba"}}, {"type": "Feature", "geometry": {"type": "Point", "coordinates": [-46.790333, -23.440333]}, "properties": {"name": 186, "address": "Avenida Felippo Sturba"}}, {"type": "Feature", "geometry": {"type": "Point", "coordinates": [-46.791584, -23.443893]}, "properties": {"name": 187, "address": "Avenida Felippo Sturba"}}, {"type": "Feature", "geometry": {"type": "Point", "coordinates": [-46.791993, -23.445365]}, "properties": {"name": 188, "address": "Avenida Felippo Sturba"}}, {"type": "Feature", "geometry": {"type": "Point", "coordinates": [-46.793787, -23.449411]}, "properties": {"name": 189, "address": "Avenida Felippo Sturba"}}, {"type": "Feature", "geometry": {"type": "Point", "coordinates": [-46.793771, -23.449543]}, "properties": {"name": 190, "address": "Avenida Felippo Sturba"}}, {"type": "Feature", "geometry": {"type": "Point", "coordinates": [-46.792568, -23.447396]}, "properties": {"name": 191, "address": "Avenida Felippo Sturba"}}, {"type": "Feature", "geometry": {"type": "Point", "coordinates": [-46.79071, -23.450869]}, "properties": {"name": 192, "address": "Rua Francisco Bellazzi"}}, {"type": "Feature", "geometry": {"type": "Point", "coordinates": [-46.792456, -23.452273]}, "properties": {"name": 193, "address": "Rua Francisco Bellazzi"}}, {"type": "Feature", "geometry": {"type": "Point", "coordinates": [-46.791306, -23.438792]}, "properties": {"name": 194, "address": "Rua Mario Palmerio"}}, {"type": "Feature", "geometry": {"type": "Point", "coordinates": [-46.803418, -23.437365]}, "properties": {"name": 195, "address": "Rua Tancredo Neves"}}, {"type": "Feature", "geometry": {"type": "Point", "coordinates": [-46.800551, -23.43134]}, "properties": {"name": 196, "address": "Estrada De Pirapora"}}, {"type": "Feature", "geometry": {"type": "Point", "coordinates": [-46.802605, -23.436901]}, "properties": {"name": 197, "address": "Rua Dos Vitoriosos"}}, {"type": "Feature", "geometry": {"type": "Point", "coordinates": [-46.802527, -23.43709]}, "properties": {"name": 198, "address": "Rua Dos Vitoriosos"}}, {"type": "Feature", "geometry": {"type": "Point", "coordinates": [-46.802298, -23.438349]}, "properties": {"name": 199, "address": "Avenida Dalva De Oliveira"}}, {"type": "Feature", "geometry": {"type": "Point", "coordinates": [-46.804023, -23.436158]}, "properties": {"name": 200, "address": "Rua Elis Regina"}}, {"type": "Feature", "geometry": {"type": "Point", "coordinates": [-46.803267, -23.437337]}, "properties": {"name": 201, "address": "Rua Tancredo Neves"}}, {"type": "Feature", "geometry": {"type": "Point", "coordinates": [-46.804526, -23.43763]}, "properties": {"name": 202, "address": "Rua Elis Regina"}}, {"type": "Feature", "geometry": {"type": "Point", "coordinates": [-46.804151, -23.436138]}, "properties": {"name": 203, "address": "Rua Elis Regina"}}, {"type": "Feature", "geometry": {"type": "Point", "coordinates": [-46.809863, -23.435618]}, "properties": {"name": 204, "address": "Rua Recife"}}, {"type": "Feature", "geometry": {"type": "Point", "coordinates": [-46.799558, -23.444368]}, "properties": {"name": 205, "address": "Rua Francisco Peraza"}}, {"type": "Feature", "geometry": {"type": "Point", "coordinates": [-46.78618, -23.442308]}, "properties": {"name": 206, "address": "Rua Das Oliveiras"}}, {"type": "Feature", "geometry": {"type": "Point", "coordinates": [-46.784084, -23.446156]}, "properties": {"name": 207, "address": "Rua Nossa Senhora Do Libano"}}, {"type": "Feature", "geometry": {"type": "Point", "coordinates": [-46.789151, -23.445756]}, "properties": {"name": 208, "address": "Rua Lazaro Carrascoza Vasco"}}, {"type": "Feature", "geometry": {"type": "Point", "coordinates": [-46.786339, -23.443785]}, "properties": {"name": 209, "address": "Rua Alexandre Caturla"}}, {"type": "Feature", "geometry": {"type": "Point", "coordinates": [-46.786432, -23.443943]}, "properties": {"name": 210, "address": "Rua Alexandre Caturla"}}, {"type": "Feature", "geometry": {"type": "Point", "coordinates": [-46.80573, -23.436396]}, "properties": {"name": 211, "address": "Estrada De Pirapora"}}, {"type": "Feature", "geometry": {"type": "Point", "coordinates": [-46.805876, -23.436514]}, "properties": {"name": 212, "address": "Estrada De Pirapora"}}, {"type": "Feature", "geometry": {"type": "Point", "coordinates": [-46.808397, -23.437664]}, "properties": {"name": 213, "address": "Estrada De Pirapora"}}, {"type": "Feature", "geometry": {"type": "Point", "coordinates": [-46.802457, -23.435626]}, "properties": {"name": 214, "address": "Estrada De Pirapora"}}, {"type": "Feature", "geometry": {"type": "Point", "coordinates": [-46.810778, -23.436609]}, "properties": {"name": 215, "address": "Estrada De Pirapora"}}, {"type": "Feature", "geometry": {"type": "Point", "coordinates": [-46.80282, -23.435387]}, "properties": {"name": 216, "address": "Estrada De Pirapora"}}, {"type": "Feature", "geometry": {"type": "Point", "coordinates": [-46.788129, -23.449135]}, "properties": {"name": 217, "address": "Rua Francisco Bellazzi"}}, {"type": "Feature", "geometry": {"type": "Point", "coordinates": [-46.791494, -23.435467]}, "properties": {"name": 218, "address": "Rua Delsuc Alves De Magalhaes"}}, {"type": "Feature", "geometry": {"type": "Point", "coordinates": [-46.78702, -23.432592]}, "properties": {"name": 219, "address": "Rua Domenico Aspari"}}, {"type": "Feature", "geometry": {"type": "Point", "coordinates": [-46.787015, -23.432494]}, "properties": {"name": 220, "address": "Rua Domenico Aspari"}}, {"type": "Feature", "geometry": {"type": "Point", "coordinates": [-46.787093, -23.432142]}, "properties": {"name": 221, "address": "Rua Domenico Aspari"}}, {"type": "Feature", "geometry": {"type": "Point", "coordinates": [-46.791884, -23.435399]}, "properties": {"name": 222, "address": "Estrada Coronel José Gladiador"}}, {"type": "Feature", "geometry": {"type": "Point", "coordinates": [-46.786267, -23.442395]}, "properties": {"name": 223, "address": "Rua Das Oliveiras"}}, {"type": "Feature", "geometry": {"type": "Point", "coordinates": [-46.765932, -23.438879]}, "properties": {"name": 224, "address": "Estrada Chica Luiza"}}, {"type": "Feature", "geometry": {"type": "Point", "coordinates": [-46.765945, -23.438793]}, "properties": {"name": 225, "address": "Estrada Chica Luiza"}}, {"type": "Feature", "geometry": {"type": "Point", "coordinates": [-46.781497, -23.43261]}, "properties": {"name": 226, "address": "Avenida Euclides Da Cunha"}}, {"type": "Feature", "geometry": {"type": "Point", "coordinates": [-46.794294, -23.451237]}, "properties": {"name": 227, "address": "Avenida Felippo Sturba"}}, {"type": "Feature", "geometry": {"type": "Point", "coordinates": [-46.794228, -23.451222]}, "properties": {"name": 228, "address": "Avenida Felippo Sturba"}}, {"type": "Feature", "geometry": {"type": "Point", "coordinates": [-46.808204, -23.413595]}, "properties": {"name": 229, "address": "Rua Aloisio Magalhaes"}}, {"type": "Feature", "geometry": {"type": "Point", "coordinates": [-46.808068, -23.413548]}, "properties": {"name": 230, "address": "Rua Aloisio Magalhaes"}}, {"type": "Feature", "geometry": {"type": "Point", "coordinates": [-46.807238, -23.415862]}, "properties": {"name": 231, "address": "Rua Eneas Camargo"}}, {"type": "Feature", "geometry": {"type": "Point", "coordinates": [-46.808984, -23.41683]}, "properties": {"name": 232, "address": "Rua Aloisio Magalhaes"}}, {"type": "Feature", "geometry": {"type": "Point", "coordinates": [-46.810035, -23.415361]}, "properties": {"name": 233, "address": "Rua George Dantu"}}, {"type": "Feature", "geometry": {"type": "Point", "coordinates": [-46.80532, -23.418533]}, "properties": {"name": 234, "address": "Rua Eneas Camargo"}}, {"type": "Feature", "geometry": {"type": "Point", "coordinates": [-46.805338, -23.414728]}, "properties": {"name": 235, "address": "Rodovia Anhanguera"}}, {"type": "Feature", "geometry": {"type": "Point", "coordinates": [-46.818756, -23.410544]}, "properties": {"name": 236, "address": "Sp-330"}}, {"type": "Feature", "geometry": {"type": "Point", "coordinates": [-46.792218, -23.422025]}, "properties": {"name": 237, "address": "Sp-330"}}, {"type": "Feature", "geometry": {"type": "Point", "coordinates": [-46.788979, -23.430417]}, "properties": {"name": 238, "address": "Rua Leopoldo De Passos Lima"}}, {"type": "Feature", "geometry": {"type": "Point", "coordinates": [-46.814012, -23.411945]}, "properties": {"name": 239, "address": "Rua Doutor Nilo Cairo"}}, {"type": "Feature", "geometry": {"type": "Point", "coordinates": [-46.812521, -23.412929]}, "properties": {"name": 240, "address": "Rua Doutor Nilo Cairo"}}, {"type": "Feature", "geometry": {"type": "Point", "coordinates": [-46.812424, -23.412863]}, "properties": {"name": 241, "address": "Rua Doutor Nilo Cairo"}}, {"type": "Feature", "geometry": {"type": "Point", "coordinates": [-46.811975, -23.414094]}, "properties": {"name": 242, "address": "Rua Leonel Martiniano"}}, {"type": "Feature", "geometry": {"type": "Point", "coordinates": [-46.812135, -23.413986]}, "properties": {"name": 243, "address": "Rua Leonel Martiniano"}}, {"type": "Feature", "geometry": {"type": "Point", "coordinates": [-46.78907, -23.448309]}, "properties": {"name": 244, "address": "Rua Albert Jansen"}}, {"type": "Feature", "geometry": {"type": "Point", "coordinates": [-46.789289, -23.448333]}, "properties": {"name": 245, "address": "Rua Albert Jansen"}}, {"type": "Feature", "geometry": {"type": "Point", "coordinates": [-46.788996, -23.430304]}, "properties": {"name": 246, "address": "Rua Leopoldo De Passos Lima"}}, {"type": "Feature", "geometry": {"type": "Point", "coordinates": [-46.780547, -23.415978]}, "properties": {"name": 247, "address": "Estrada De Perus"}}, {"type": "Feature", "geometry": {"type": "Point", "coordinates": [-46.788797, -23.435651]}, "properties": {"name": 248, "address": "Rua Serra Do Palmeirao"}}, {"type": "Feature", "geometry": {"type": "Point", "coordinates": [-46.788466, -23.435371]}, "properties": {"name": 249, "address": "Rua Diego Velasquez"}}, {"type": "Feature", "geometry": {"type": "Point", "coordinates": [-46.789055, -23.449766]}, "properties": {"name": 250, "address": "Rua Francisco Bellazzi"}}, {"type": "Feature", "geometry": {"type": "Point", "coordinates": [-46.788813, -23.449565]}, "properties": {"name": 251, "address": "Rua Francisco Bellazzi"}}, {"type": "Feature", "geometry": {"type": "Point", "coordinates": [-46.791071, -23.438745]}, "properties": {"name": 252, "address": "Rua Mario Palmerio"}}, {"type": "Feature", "geometry": {"type": "Point", "coordinates": [-46.805764, -23.437188]}, "properties": {"name": 253, "address": "Rua Jose Adao"}}, {"type": "Feature", "geometry": {"type": "Point", "coordinates": [-46.523617, -23.57197]}, "properties": {"name": 254, "address": "Avenida Monsenhor Antonio Castro"}}, {"type": "Feature", "geometry": {"type": "Point", "coordinates": [-46.527994, -23.576159]}, "properties": {"name": 255, "address": "Avenida Cipriano Rodrigues"}}, {"type": "Feature", "geometry": {"type": "Point", "coordinates": [-46.525211, -23.577482]}, "properties": {"name": 256, "address": "Avenida Cipriano Rodrigues"}}, {"type": "Feature", "geometry": {"type": "Point", "coordinates": [-46.523746, -23.57688]}, "properties": {"name": 257, "address": "Avenida Cipriano Rodrigues"}}, {"type": "Feature", "geometry": {"type": "Point", "coordinates": [-46.521284, -23.576451]}, "properties": {"name": 258, "address": "Avenida Cipriano Rodrigues"}}, {"type": "Feature", "geometry": {"type": "Point", "coordinates": [-46.517253, -23.576581]}, "properties": {"name": 259, "address": "Avenida Dos Nacionalistas"}}, {"type": "Feature", "geometry": {"type": "Point", "coordinates": [-46.516906, -23.576694]}, "properties": {"name": 260, "address": "Avenida Dos Nacionalistas"}}, {"type": "Feature", "geometry": {"type": "Point", "coordinates": [-46.515587, -23.577077]}, "properties": {"name": 261, "address": "Avenida Dos Nacionalistas"}}, {"type": "Feature", "geometry": {"type": "Point", "coordinates": [-46.514648, -23.577623]}, "properties": {"name": 262, "address": "Avenida Dos Nacionalistas"}}, {"type": "Feature", "geometry": {"type": "Point", "coordinates": [-46.506069, -23.579975]}, "properties": {"name": 263, "address": "Avenida Pastor Cícero Canuto De Lima"}}, {"type": "Feature", "geometry": {"type": "Point", "coordinates": [-46.505128, -23.579978]}, "properties": {"name": 264, "address": "Avenida Pastor Cícero Canuto De Lima"}}, {"type": "Feature", "geometry": {"type": "Point", "coordinates": [-46.510065, -23.579914]}, "properties": {"name": 265, "address": "Avenida Pastor Cícero Canuto De Lima"}}, {"type": "Feature", "geometry": {"type": "Point", "coordinates": [-46.509661, -23.580073]}, "properties": {"name": 266, "address": "Avenida Pastor Cícero Canuto De Lima"}}, {"type": "Feature", "geometry": {"type": "Point", "coordinates": [-46.512336, -23.579382]}, "properties": {"name": 267, "address": "Avenida Dos Nacionalistas"}}, {"type": "Feature", "geometry": {"type": "Point", "coordinates": [-46.512611, -23.579319]}, "properties": {"name": 268, "address": "Avenida Dos Nacionalistas"}}, {"type": "Feature", "geometry": {"type": "Point", "coordinates": [-46.510764, -23.585336]}, "properties": {"name": 269, "address": "Rua Tuma Maluly"}}, {"type": "Feature", "geometry": {"type": "Point", "coordinates": [-46.507412, -23.579997]}, "properties": {"name": 270, "address": "Avenida Pastor Cícero Canuto De Lima"}}, {"type": "Feature", "geometry": {"type": "Point", "coordinates": [-46.509967, -23.588883]}, "properties": {"name": 271, "address": "Rua Tuma Maluly"}}, {"type": "Feature", "geometry": {"type": "Point", "coordinates": [-46.520787, -23.574472]}, "properties": {"name": 272, "address": "Rua Manuel Figueiredo"}}, {"type": "Feature", "geometry": {"type": "Point", "coordinates": [-46.507831, -23.565612]}, "properties": {"name": 273, "address": "Avenida Aricanduva"}}, {"type": "Feature", "geometry": {"type": "Point", "coordinates": [-46.509236, -23.570684]}, "properties": {"name": 274, "address": "Posto Ale"}}, {"type": "Feature", "geometry": {"type": "Point", "coordinates": [-46.507183, -23.567969]}, "properties": {"name": 275, "address": "Avenida Francisco Jose Resende"}}, {"type": "Feature", "geometry": {"type": "Point", "coordinates": [-46.509179, -23.565666]}, "properties": {"name": 276, "address": "Avenida Odilon Pires"}}, {"type": "Feature", "geometry": {"type": "Point", "coordinates": [-46.525041, -23.58364]}, "properties": {"name": 277, "address": "Rua Joao Galli"}}, {"type": "Feature", "geometry": {"type": "Point", "coordinates": [-46.50977, -23.58038]}, "properties": {"name": 278, "address": "Rua Nello Selmi Dei"}}, {"type": "Feature", "geometry": {"type": "Point", "coordinates": [-46.51086, -23.56712]}, "properties": {"name": 279, "address": "Avenida Rio Das Pedras"}}, {"type": "Feature", "geometry": {"type": "Point", "coordinates": [-46.523688, -23.573241]}, "properties": {"name": 280, "address": "Rua Manuel Figueiredo"}}, {"type": "Feature", "geometry": {"type": "Point", "coordinates": [-46.523507, -23.571956]}, "properties": {"name": 281, "address": "Avenida Monsenhor Antonio Castro"}}, {"type": "Feature", "geometry": {"type": "Point", "coordinates": [-46.508896, -23.588091]}, "properties": {"name": 282, "address": "Rua Amelia Vanso Magnoli"}}, {"type": "Feature", "geometry": {"type": "Point", "coordinates": [-46.523244, -23.578592]}, "properties": {"name": 283, "address": "Rua Ailton Negrao Fazzio"}}, {"type": "Feature", "geometry": {"type": "Point", "coordinates": [-46.521109, -23.558044]}, "properties": {"name": 284, "address": "Avenida Itaquera"}}, {"type": "Feature", "geometry": {"type": "Point", "coordinates": [-46.506906, -23.582077]}, "properties": {"name": 285, "address": "Rua Pedro Rabelo"}}, {"type": "Feature", "geometry": {"type": "Point", "coordinates": [-46.532015, -23.571525]}, "properties": {"name": 286, "address": "Rua Nossa Senhora Das Dores"}}, {"type": "Feature", "geometry": {"type": "Point", "coordinates": [-46.53202, -23.57156]}, "properties": {"name": 287, "address": "Rua Nossa Senhora Das Dores"}}, {"type": "Feature", "geometry": {"type": "Point", "coordinates": [-46.507526, -23.585423]}, "properties": {"name": 288, "address": "Rua Amelia Vanso Magnoli"}}, {"type": "Feature", "geometry": {"type": "Point", "coordinates": [-46.50634, -23.587559]}, "properties": {"name": 289, "address": "Rua Rufino Fernandes Inivarri"}}, {"type": "Feature", "geometry": {"type": "Point", "coordinates": [-46.525719, -23.580209]}, "properties": {"name": 290, "address": "Rua Comendador Ferreira De Souza"}}, {"type": "Feature", "geometry": {"type": "Point", "coordinates": [-46.483381, -23.547084]}, "properties": {"name": 291, "address": "Rua Padre Tomás De Vilanova"}}, {"type": "Feature", "geometry": {"type": "Point", "coordinates": [-46.483463, -23.547236]}, "properties": {"name": 292, "address": "Rua Padre Tomás De Vilanova"}}, {"type": "Feature", "geometry": {"type": "Point", "coordinates": [-46.48148, -23.543025]}, "properties": {"name": 293, "address": "Rua Padre Jeronimo Machado"}}, {"type": "Feature", "geometry": {"type": "Point", "coordinates": [-46.485387, -23.540407]}, "properties": {"name": 294, "address": "Rua Doutor Campos Moura"}}, {"type": "Feature", "geometry": {"type": "Point", "coordinates": [-46.492483, -23.542364]}, "properties": {"name": 295, "address": "Rua Maciel Monteiro"}}, {"type": "Feature", "geometry": {"type": "Point", "coordinates": [-46.490369, -23.537112]}, "properties": {"name": 296, "address": "Rua Maciel Monteiro"}}, {"type": "Feature", "geometry": {"type": "Point", "coordinates": [-46.480781, -23.52584]}, "properties": {"name": 297, "address": "Avenida Nicolau Jacinto"}}, {"type": "Feature", "geometry": {"type": "Point", "coordinates": [-46.476618, -23.524382]}, "properties": {"name": 298, "address": "Rua Sonho Gaucho"}}, {"type": "Feature", "geometry": {"type": "Point", "coordinates": [-46.493143, -23.55052]}, "properties": {"name": 299, "address": "Avenida Engenheiro Joao Batista Aranha"}}, {"type": "Feature", "geometry": {"type": "Point", "coordinates": [-46.483157, -23.54003]}, "properties": {"name": 300, "address": "Linha 2725-10 - Metrô Artur Alvim / Jd. São Carlos"}}, {"type": "Feature", "geometry": {"type": "Point", "coordinates": [-46.492706, -23.534729]}, "properties": {"name": 301, "address": "Avenida Canio Lettieri"}}, {"type": "Feature", "geometry": {"type": "Point", "coordinates": [-46.487241, -23.549839]}, "properties": {"name": 302, "address": "Rua Padre Gabriel De Campos"}}, {"type": "Feature", "geometry": {"type": "Point", "coordinates": [-46.487042, -23.549654]}, "properties": {"name": 303, "address": "Rua Padre Gabriel De Campos"}}, {"type": "Feature", "geometry": {"type": "Point", "coordinates": [-46.487692, -23.529268]}, "properties": {"name": 304, "address": "Rua Juazeiro Do Norte"}}, {"type": "Feature", "geometry": {"type": "Point", "coordinates": [-46.484453, -23.532782]}, "properties": {"name": 305, "address": "Rua Iborepi"}}, {"type": "Feature", "geometry": {"type": "Point", "coordinates": [-46.487538, -23.529547]}, "properties": {"name": 306, "address": "Rua Juazeiro Do Norte"}}, {"type": "Feature", "geometry": {"type": "Point", "coordinates": [-46.487821, -23.526775]}, "properties": {"name": 307, "address": "Rua Juazeiro Do Norte"}}, {"type": "Feature", "geometry": {"type": "Point", "coordinates": [-46.474051, -23.530005]}, "properties": {"name": 308, "address": "Avenida Aguia De Haia"}}, {"type": "Feature", "geometry": {"type": "Point", "coordinates": [-46.473721, -23.531595]}, "properties": {"name": 309, "address": "Avenida Aguia De Haia"}}, {"type": "Feature", "geometry": {"type": "Point", "coordinates": [-46.482933, -23.540692]}, "properties": {"name": 310, "address": "Viaduto Milton Leão"}}, {"type": "Feature", "geometry": {"type": "Point", "coordinates": [-46.496007, -23.548178]}, "properties": {"name": 311, "address": "Rua São Vitório"}}, {"type": "Feature", "geometry": {"type": "Point", "coordinates": [-46.476053, -23.54132]}, "properties": {"name": 312, "address": "Rua Juciri"}}, {"type": "Feature", "geometry": {"type": "Point", "coordinates": [-46.495311, -23.544057]}, "properties": {"name": 313, "address": "Rua São Vitório"}}, {"type": "Feature", "geometry": {"type": "Point", "coordinates": [-46.495993, -23.549165]}, "properties": {"name": 314, "address": "Rua Sao Vitorio"}}, {"type": "Feature", "geometry": {"type": "Point", "coordinates": [-46.496016, -23.548091]}, "properties": {"name": 315, "address": "Rua São Vitório"}}, {"type": "Feature", "geometry": {"type": "Point", "coordinates": [-46.49592, -23.549443]}, "properties": {"name": 316, "address": "Rua Doutor Xavier De Oliveira"}}, {"type": "Feature", "geometry": {"type": "Point", "coordinates": [-46.488622, -23.539675]}, "properties": {"name": 317, "address": "Rua Desembargador Rocha Portela"}}, {"type": "Feature", "geometry": {"type": "Point", "coordinates": [-46.473961, -23.534977]}, "properties": {"name": 318, "address": "Avenida Aguia De Haia"}}, {"type": "Feature", "geometry": {"type": "Point", "coordinates": [-46.497012, -23.5374]}, "properties": {"name": 319, "address": "Rua Desembargador Rocha Portela"}}, {"type": "Feature", "geometry": {"type": "Point", "coordinates": [-46.493889, -23.538378]}, "properties": {"name": 320, "address": "Rua Desembargador Rocha Portela"}}, {"type": "Feature", "geometry": {"type": "Point", "coordinates": [-46.491888, -23.538931]}, "properties": {"name": 321, "address": "Rua Henrique Jacobs"}}, {"type": "Feature", "geometry": {"type": "Point", "coordinates": [-46.493517, -23.542449]}, "properties": {"name": 322, "address": "Rua Henrique Jacobs"}}, {"type": "Feature", "geometry": {"type": "Point", "coordinates": [-46.488244, -23.530951]}, "properties": {"name": 323, "address": "Avenida Calim Eid"}}, {"type": "Feature", "geometry": {"type": "Point", "coordinates": [-46.484867, -23.536987]}, "properties": {"name": 324, "address": "Avenida Calim Eid"}}, {"type": "Feature", "geometry": {"type": "Point", "coordinates": [-46.481217, -23.541553]}, "properties": {"name": 325, "address": "Rua Boipeva"}}, {"type": "Feature", "geometry": {"type": "Point", "coordinates": [-46.487096, -23.531282]}, "properties": {"name": 326, "address": "Rua Igaroi"}}, {"type": "Feature", "geometry": {"type": "Point", "coordinates": [-46.49502, -23.541471]}, "properties": {"name": 327, "address": "Rua Pontal"}}, {"type": "Feature", "geometry": {"type": "Point", "coordinates": [-46.490414, -23.53711]}, "properties": {"name": 328, "address": "Rua Maciel Monteiro"}}, {"type": "Feature", "geometry": {"type": "Point", "coordinates": [-46.498248, -23.548292]}, "properties": {"name": 329, "address": "Avenida Professor Edgar Santos"}}, {"type": "Feature", "geometry": {"type": "Point", "coordinates": [-46.483887, -23.541974]}, "properties": {"name": 330, "address": "Rua Doutor Campos Moura"}}, {"type": "Feature", "geometry": {"type": "Point", "coordinates": [-46.483742, -23.542102]}, "properties": {"name": 331, "address": "Rua Doutor Campos Moura"}}, {"type": "Feature", "geometry": {"type": "Point", "coordinates": [-46.501409, -23.547329]}, "properties": {"name": 332, "address": "Avenida Professor Edgar Santos"}}, {"type": "Feature", "geometry": {"type": "Point", "coordinates": [-46.500236, -23.547791]}, "properties": {"name": 333, "address": "Avenida Professor Edgar Santos"}}, {"type": "Feature", "geometry": {"type": "Point", "coordinates": [-46.495508, -23.550356]}, "properties": {"name": 334, "address": "Avenida Professor Edgar Santos"}}, {"type": "Feature", "geometry": {"type": "Point", "coordinates": [-46.496877, -23.549719]}, "properties": {"name": 335, "address": "Avenida Professor Edgar Santos"}}, {"type": "Feature", "geometry": {"type": "Point", "coordinates": [-46.494206, -23.551561]}, "properties": {"name": 336, "address": "Avenida Professor Edgar Santos"}}, {"type": "Feature", "geometry": {"type": "Point", "coordinates": [-46.492069, -23.549488]}, "properties": {"name": 337, "address": "Rua Morfeu"}}, {"type": "Feature", "geometry": {"type": "Point", "coordinates": [-46.490312, -23.549122]}, "properties": {"name": 338, "address": "Rua Deli"}}, {"type": "Feature", "geometry": {"type": "Point", "coordinates": [-46.492881, -23.549747]}, "properties": {"name": 339, "address": "Avenida Engenheiro Joao Batista Aranha"}}, {"type": "Feature", "geometry": {"type": "Point", "coordinates": [-46.490684, -23.547936]}, "properties": {"name": 340, "address": "Rua Suzana Dacre"}}, {"type": "Feature", "geometry": {"type": "Point", "coordinates": [-46.491495, -23.547838]}, "properties": {"name": 341, "address": "Rua Suzana Dacre"}}, {"type": "Feature", "geometry": {"type": "Point", "coordinates": [-46.49177, -23.547646]}, "properties": {"name": 342, "address": "Rua Doutor França Alencar"}}, {"type": "Feature", "geometry": {"type": "Point", "coordinates": [-46.490236, -23.549056]}, "properties": {"name": 343, "address": "Rua Deli"}}, {"type": "Feature", "geometry": {"type": "Point", "coordinates": [-46.490886, -23.546288]}, "properties": {"name": 344, "address": "Rua Desembargador Carneiro Ribeiro"}}, {"type": "Feature", "geometry": {"type": "Point", "coordinates": [-46.49974, -23.534118]}, "properties": {"name": 345, "address": "Avenida Antonio Estevao De Carvalho"}}, {"type": "Feature", "geometry": {"type": "Point", "coordinates": [-46.490541, -23.548214]}, "properties": {"name": 346, "address": "Rua Adriano Rainaldi"}}, {"type": "Feature", "geometry": {"type": "Point", "coordinates": [-46.490719, -23.548736]}, "properties": {"name": 347, "address": "Rua Vidal Prader"}}, {"type": "Feature", "geometry": {"type": "Point", "coordinates": [-46.488061, -23.53262]}, "properties": {"name": 348, "address": "Avenida Hermilo Alves"}}, {"type": "Feature", "geometry": {"type": "Point", "coordinates": [-46.485099, -23.540632]}, "properties": {"name": 349, "address": "Rua Doutor Campos Moura"}}, {"type": "Feature", "geometry": {"type": "Point", "coordinates": [-46.486132, -23.540149]}, "properties": {"name": 350, "address": "Rua Peixoto Werneck"}}, {"type": "Feature", "geometry": {"type": "Point", "coordinates": [-46.485798, -23.544088]}, "properties": {"name": 351, "address": "Rua Padre Tomás De Vilanova"}}, {"type": "Feature", "geometry": {"type": "Point", "coordinates": [-46.485495, -23.544373]}, "properties": {"name": 352, "address": "Rua Padre Tomás De Vilanova"}}, {"type": "Feature", "geometry": {"type": "Point", "coordinates": [-46.662088, -23.532388]}, "properties": {"name": 353, "address": "Rua Francisco Estácio Fontes"}}, {"type": "Feature", "geometry": {"type": "Point", "coordinates": [-46.662129, -23.529206]}, "properties": {"name": 354, "address": "Rua Margarida"}}, {"type": "Feature", "geometry": {"type": "Point", "coordinates": [-46.668754, -23.522674]}, "properties": {"name": 355, "address": "Avenida Antartica"}}, {"type": "Feature", "geometry": {"type": "Point", "coordinates": [-46.668963, -23.52229]}, "properties": {"name": 356, "address": "Avenida Antartica"}}, {"type": "Feature", "geometry": {"type": "Point", "coordinates": [-46.676051, -23.528895]}, "properties": {"name": 357, "address": "Avenida Antartica"}}, {"type": "Feature", "geometry": {"type": "Point", "coordinates": [-46.678889, -23.516262]}, "properties": {"name": 358, "address": "Avenida Nicolas Boer"}}, {"type": "Feature", "geometry": {"type": "Point", "coordinates": [-46.67151, -23.527602]}, "properties": {"name": 359, "address": "Avenida Francisco Matarazzo"}}, {"type": "Feature", "geometry": {"type": "Point", "coordinates": [-46.689824, -23.515114]}, "properties": {"name": 360, "address": "Avenida Marquês De São Vicente"}}, {"type": "Feature", "geometry": {"type": "Point", "coordinates": [-46.599844, -23.526423]}, "properties": {"name": 361, "address": "Avenida Presidente Castelo Branco"}}, {"type": "Feature", "geometry": {"type": "Point", "coordinates": [-46.668966, -23.532654]}, "properties": {"name": 362, "address": "Rua Ministro De Godoy"}}, {"type": "Feature", "geometry": {"type": "Point", "coordinates": [-46.671566, -23.522117]}, "properties": {"name": 363, "address": "Rua Robert Bosch"}}, {"type": "Feature", "geometry": {"type": "Point", "coordinates": [-46.671596, -23.521946]}, "properties": {"name": 364, "address": "Rua Robert Bosch"}}, {"type": "Feature", "geometry": {"type": "Point", "coordinates": [-46.668948, -23.522506]}, "properties": {"name": 365, "address": "Avenida Antartica"}}, {"type": "Feature", "geometry": {"type": "Point", "coordinates": [-46.666781, -23.52735]}, "properties": {"name": 366, "address": "Professor Wilfrides Alves De Lima"}}, {"type": "Feature", "geometry": {"type": "Point", "coordinates": [-46.679389, -23.519816]}, "properties": {"name": 367, "address": "Avenida Nicolas Boer"}}, {"type": "Feature", "geometry": {"type": "Point", "coordinates": [-46.666532, -23.525149]}, "properties": {"name": 368, "address": "Ponto Term. Pirituba - 8500/10"}}, {"type": "Feature", "geometry": {"type": "Point", "coordinates": [-46.666352, -23.525157]}, "properties": {"name": 369, "address": "Ponto Term. Pirituba - 8500/10"}}, {"type": "Feature", "geometry": {"type": "Point", "coordinates": [-46.666195, -23.525172]}, "properties": {"name": 370, "address": "Ponto Term. Pirituba - 8500/10"}}, {"type": "Feature", "geometry": {"type": "Point", "coordinates": [-46.666035, -23.525176]}, "properties": {"name": 371, "address": "Tabacaria Bellatrix"}}, {"type": "Feature", "geometry": {"type": "Point", "coordinates": [-46.676079, -23.528682]}, "properties": {"name": 372, "address": "Avenida Antartica"}}, {"type": "Feature", "geometry": {"type": "Point", "coordinates": [-46.690308, -23.512093]}, "properties": {"name": 373, "address": "Avenida Comendador Martinelli"}}, {"type": "Feature", "geometry": {"type": "Point", "coordinates": [-46.690588, -23.512779]}, "properties": {"name": 374, "address": "Avenida Comendador Martinelli"}}, {"type": "Feature", "geometry": {"type": "Point", "coordinates": [-46.690676, -23.514265]}, "properties": {"name": 375, "address": "Avenida Comendador Martinelli"}}, {"type": "Feature", "geometry": {"type": "Point", "coordinates": [-46.679261, -23.516248]}, "properties": {"name": 376, "address": "Avenida Nicolas Boer"}}, {"type": "Feature", "geometry": {"type": "Point", "coordinates": [-46.688993, -23.506457]}, "properties": {"name": 377, "address": "Avenida Comendador Martinelli"}}, {"type": "Feature", "geometry": {"type": "Point", "coordinates": [-46.666111, -23.526575]}, "properties": {"name": 378, "address": "Avenida Auro Soares De Moura Andrade"}}, {"type": "Feature", "geometry": {"type": "Point", "coordinates": [-46.66578, -23.526609]}, "properties": {"name": 379, "address": "Avenida Auro Soares De Moura Andrade"}}, {"type": "Feature", "geometry": {"type": "Point", "coordinates": [-46.670379, -23.524503]}, "properties": {"name": 380, "address": "Viaduto Antártica"}}, {"type": "Feature", "geometry": {"type": "Point", "coordinates": [-46.675775, -23.516221]}, "properties": {"name": 381, "address": "Rua Doutor Edgard Theotônio Santana"}}, {"type": "Feature", "geometry": {"type": "Point", "coordinates": [-46.671112, -23.525724]}, "properties": {"name": 382, "address": "Avenida Auro Soares De Moura Andrade"}}, {"type": "Feature", "geometry": {"type": "Point", "coordinates": [-46.679615, -23.522048]}, "properties": {"name": 383, "address": "Avenida Nicolas Boer"}}, {"type": "Feature", "geometry": {"type": "Point", "coordinates": [-46.671425, -23.526141]}, "properties": {"name": 384, "address": "Rua Julio Gonzales"}}, {"type": "Feature", "geometry": {"type": "Point", "coordinates": [-46.669196, -23.527107]}, "properties": {"name": 385, "address": "Rua Tagipuru"}}, {"type": "Feature", "geometry": {"type": "Point", "coordinates": [-46.675348, -23.519327]}, "properties": {"name": 386, "address": "Avenida Marquês De São Vicente"}}, {"type": "Feature", "geometry": {"type": "Point", "coordinates": [-46.67527, -23.524638]}, "properties": {"name": 387, "address": "Rua Gustav Willi Borghoff"}}, {"type": "Feature", "geometry": {"type": "Point", "coordinates": [-46.674097, -23.518236]}, "properties": {"name": 388, "address": "Rua Doutor Edgard Theotônio Santana"}}, {"type": "Feature", "geometry": {"type": "Point", "coordinates": [-46.674677, -23.519871]}, "properties": {"name": 389, "address": "Praca Pascoal Martins"}}, {"type": "Feature", "geometry": {"type": "Point", "coordinates": [-46.674723, -23.518844]}, "properties": {"name": 390, "address": "Praca Pascoal Martins"}}, {"type": "Feature", "geometry": {"type": "Point", "coordinates": [-46.672271, -23.519402]}, "properties": {"name": 391, "address": "Rua Tenente Alberto Spicciati"}}, {"type": "Feature", "geometry": {"type": "Point", "coordinates": [-46.650874, -23.565893]}, "properties": {"name": 392, "address": "Cacau Show"}}, {"type": "Feature", "geometry": {"type": "Point", "coordinates": [-46.648164, -23.566236]}, "properties": {"name": 393, "address": "Avenida Brigadeiro Luis Antonio"}}, {"type": "Feature", "geometry": {"type": "Point", "coordinates": [-46.647879, -23.565952]}, "properties": {"name": 394, "address": "Espetinho Brigadeiro"}}, {"type": "Feature", "geometry": {"type": "Point", "coordinates": [-46.646407, -23.563953]}, "properties": {"name": 395, "address": "Avenida Brigadeiro Luis Antonio"}}, {"type": "Feature", "geometry": {"type": "Point", "coordinates": [-46.646113, -23.563743]}, "properties": {"name": 396, "address": "Avenida Brigadeiro Luis Antonio"}}, {"type": "Feature", "geometry": {"type": "Point", "coordinates": [-46.644031, -23.5698]}, "properties": {"name": 397, "address": "Rua Treze De Maio"}}, {"type": "Feature", "geometry": {"type": "Point", "coordinates": [-46.6438, -23.56984]}, "properties": {"name": 398, "address": "Rua Treze De Maio"}}, {"type": "Feature", "geometry": {"type": "Point", "coordinates": [-46.644604, -23.566281]}, "properties": {"name": 399, "address": "Rua Treze De Maio"}}, {"type": "Feature", "geometry": {"type": "Point", "coordinates": [-46.65005, -23.555998]}, "properties": {"name": 400, "address": "Viaduto Doutor Plínio De Queiroz"}}, {"type": "Feature", "geometry": {"type": "Point", "coordinates": [-46.649766, -23.555608]}, "properties": {"name": 401, "address": "Viaduto Doutor Plínio De Queiroz"}}, {"type": "Feature", "geometry": {"type": "Point", "coordinates": [-46.644773, -23.569309]}, "properties": {"name": 402, "address": "Rua Cincinato Braga"}}, {"type": "Feature", "geometry": {"type": "Point", "coordinates": [-46.645243, -23.558383]}, "properties": {"name": 403, "address": "Rua Rui Barbosa"}}, {"type": "Feature", "geometry": {"type": "Point", "coordinates": [-46.645599, -23.570292]}, "properties": {"name": 404, "address": "Avenida Paulista"}}, {"type": "Feature", "geometry": {"type": "Point", "coordinates": [-46.645136, -23.560881]}, "properties": {"name": 405, "address": "Rua Rui Barbosa"}}, {"type": "Feature", "geometry": {"type": "Point", "coordinates": [-46.656969, -23.557154]}, "properties": {"name": 406, "address": "Rua Antonio Carlos"}}, {"type": "Feature", "geometry": {"type": "Point", "coordinates": [-46.583491, -23.543848]}, "properties": {"name": 407, "address": "Rua Padre Adelino"}}, {"type": "Feature", "geometry": {"type": "Point", "coordinates": [-46.588221, -23.546465]}, "properties": {"name": 408, "address": "Rua Serra Da Bocaina"}}, {"type": "Feature", "geometry": {"type": "Point", "coordinates": [-46.586279, -23.544156]}, "properties": {"name": 409, "address": "Avenida Alvaro Ramos"}}, {"type": "Feature", "geometry": {"type": "Point", "coordinates": [-46.585562, -23.544303]}, "properties": {"name": 410, "address": "Rua Padre Adelino"}}, {"type": "Feature", "geometry": {"type": "Point", "coordinates": [-46.601901, -23.528192]}, "properties": {"name": 411, "address": "Avenida Ariston Azevedo"}}, {"type": "Feature", "geometry": {"type": "Point", "coordinates": [-46.602308, -23.530794]}, "properties": {"name": 412, "address": "Praça General Humberto De Sousa Melo"}}, {"type": "Feature", "geometry": {"type": "Point", "coordinates": [-46.588446, -23.540602]}, "properties": {"name": 413, "address": "Rua Herval"}}, {"type": "Feature", "geometry": {"type": "Point", "coordinates": [-46.59056, -23.546981]}, "properties": {"name": 414, "address": "Rua Serra Da Bocaina"}}, {"type": "Feature", "geometry": {"type": "Point", "coordinates": [-46.579754, -23.547766]}, "properties": {"name": 415, "address": "Avenida Salim Farah Maluf"}}, {"type": "Feature", "geometry": {"type": "Point", "coordinates": [-46.600048, -23.528758]}, "properties": {"name": 416, "address": "Rua Manuel Ramos Paiva"}}, {"type": "Feature", "geometry": {"type": "Point", "coordinates": [-46.599837, -23.540884]}, "properties": {"name": 417, "address": "Rua São Leopoldo"}}, {"type": "Feature", "geometry": {"type": "Point", "coordinates": [-46.603474, -23.529051]}, "properties": {"name": 418, "address": "Rua Paulo Andrighetti"}}, {"type": "Feature", "geometry": {"type": "Point", "coordinates": [-46.603082, -23.530382]}, "properties": {"name": 419, "address": "Rua Marcos Arruda"}}, {"type": "Feature", "geometry": {"type": "Point", "coordinates": [-46.589189, -23.543289]}, "properties": {"name": 420, "address": "Café Chocolat"}}, {"type": "Feature", "geometry": {"type": "Point", "coordinates": [-46.605545, -23.538205]}, "properties": {"name": 421, "address": "Rua Julio Cesar Da Silva"}}, {"type": "Feature", "geometry": {"type": "Point", "coordinates": [-46.588934, -23.537436]}, "properties": {"name": 422, "address": "Praça Major Guilherme Rudge"}}, {"type": "Feature", "geometry": {"type": "Point", "coordinates": [-46.588377, -23.556304]}, "properties": {"name": 423, "address": "Rua Itaqueri"}}, {"type": "Feature", "geometry": {"type": "Point", "coordinates": [-46.590651, -23.542415]}, "properties": {"name": 424, "address": "Rua Toledo Barbosa"}}, {"type": "Feature", "geometry": {"type": "Point", "coordinates": [-46.585827, -23.540122]}, "properties": {"name": 425, "address": "Rua Herval"}}, {"type": "Feature", "geometry": {"type": "Point", "coordinates": [-46.61224, -23.533363]}, "properties": {"name": 426, "address": "Rua Santa Rita"}}, {"type": "Feature", "geometry": {"type": "Point", "coordinates": [-46.565477, -23.527332]}, "properties": {"name": 427, "address": "Avenida Condessa Elisabeth Robiano"}}, {"type": "Feature", "geometry": {"type": "Point", "coordinates": [-46.605669, -23.536272]}, "properties": {"name": 428, "address": "Rua Behring"}}, {"type": "Feature", "geometry": {"type": "Point", "coordinates": [-46.587991, -23.537344]}, "properties": {"name": 429, "address": "Rua Pimenta Bueno"}}, {"type": "Feature", "geometry": {"type": "Point", "coordinates": [-46.584707, -23.53462]}, "properties": {"name": 430, "address": "Rua Ulisses Cruz"}}, {"type": "Feature", "geometry": {"type": "Point", "coordinates": [-46.647656, -23.525761]}, "properties": {"name": 431, "address": "Rua Barra Do Tibagi"}}, {"type": "Feature", "geometry": {"type": "Point", "coordinates": [-46.639277, -23.528206]}, "properties": {"name": 432, "address": "Rua Da Graca"}}, {"type": "Feature", "geometry": {"type": "Point", "coordinates": [-46.634803, -23.526231]}, "properties": {"name": 433, "address": "Rua Prates"}}, {"type": "Feature", "geometry": {"type": "Point", "coordinates": [-46.615199, -23.558954]}, "properties": {"name": 434, "address": "Avenida Do Estado"}}, {"type": "Feature", "geometry": {"type": "Point", "coordinates": [-46.6347, -23.5353]}, "properties": {"name": 435, "address": "Café Knoblok"}}, {"type": "Feature", "geometry": {"type": "Point", "coordinates": [-46.637215, -23.527804]}, "properties": {"name": 436, "address": "Rua Guarani"}}, {"type": "Feature", "geometry": {"type": "Point", "coordinates": [-46.626775, -23.527741]}, "properties": {"name": 437, "address": "Rua Victor Ayrosa"}}, {"type": "Feature", "geometry": {"type": "Point", "coordinates": [-46.626553, -23.52359]}, "properties": {"name": 438, "address": "Rua Guapore"}}, {"type": "Feature", "geometry": {"type": "Point", "coordinates": [-46.649841, -23.524213]}, "properties": {"name": 439, "address": "Avenida Rudge"}}, {"type": "Feature", "geometry": {"type": "Point", "coordinates": [-46.634351, -23.528758]}, "properties": {"name": 440, "address": "Rua Guarani"}}, {"type": "Feature", "geometry": {"type": "Point", "coordinates": [-46.638911, -23.52816]}, "properties": {"name": 441, "address": "Rua Silva Pinto"}}, {"type": "Feature", "geometry": {"type": "Point", "coordinates": [-46.646257, -23.522139]}, "properties": {"name": 442, "address": "Rua Anhaia"}}, {"type": "Feature", "geometry": {"type": "Point", "coordinates": [-46.646727, -23.521493]}, "properties": {"name": 443, "address": "Rua Sergio Tomaz"}}, {"type": "Feature", "geometry": {"type": "Point", "coordinates": [-46.629538, -23.516163]}, "properties": {"name": 444, "address": "Avenida Santos Dumont"}}, {"type": "Feature", "geometry": {"type": "Point", "coordinates": [-46.641571, -23.527626]}, "properties": {"name": 445, "address": "Rua Julio Conceicao"}}, {"type": "Feature", "geometry": {"type": "Point", "coordinates": [-46.615485, -23.542161]}, "properties": {"name": 446, "address": "Avenida Rangel Pestana"}}, {"type": "Feature", "geometry": {"type": "Point", "coordinates": [-46.614606, -23.54061]}, "properties": {"name": 447, "address": "Rua Visconde De Abaeté"}}, {"type": "Feature", "geometry": {"type": "Point", "coordinates": [-46.610696, -23.539815]}, "properties": {"name": 448, "address": "Avenida Celso Garcia"}}, {"type": "Feature", "geometry": {"type": "Point", "coordinates": [-46.616314, -23.545582]}, "properties": {"name": 449, "address": "Quartel Tabatinguera - Futuro Museu PM"}}, {"type": "Feature", "geometry": {"type": "Point", "coordinates": [-46.616127, -23.547751]}, "properties": {"name": 450, "address": "Fundação Casa Piratininga"}}, {"type": "Feature", "geometry": {"type": "Point", "coordinates": [-46.617495, -23.552358]}, "properties": {"name": 451, "address": "Avenida Alcantara Machado"}}, {"type": "Feature", "geometry": {"type": "Point", "coordinates": [-46.626439, -23.547236]}, "properties": {"name": 452, "address": "Rua Da Figueira"}}, {"type": "Feature", "geometry": {"type": "Point", "coordinates": [-46.62218, -23.546156]}, "properties": {"name": 453, "address": "Avenida Rangel Pestana"}}, {"type": "Feature", "geometry": {"type": "Point", "coordinates": [-46.620061, -23.545099]}, "properties": {"name": 454, "address": "Avenida Rangel Pestana"}}, {"type": "Feature", "geometry": {"type": "Point", "coordinates": [-46.613791, -23.538668]}, "properties": {"name": 455, "address": "Rua Doutor Ricardo Gonçalves"}}, {"type": "Feature", "geometry": {"type": "Point", "coordinates": [-46.613627, -23.535442]}, "properties": {"name": 456, "address": "Rua Xavantes"}}, {"type": "Feature", "geometry": {"type": "Point", "coordinates": [-46.623166, -23.544261]}, "properties": {"name": 457, "address": "Rua Do Gasometro"}}, {"type": "Feature", "geometry": {"type": "Point", "coordinates": [-46.671055, -23.473494]}, "properties": {"name": 458, "address": "Avenida Deputado Cantidio Sampaio"}}, {"type": "Feature", "geometry": {"type": "Point", "coordinates": [-46.670373, -23.467173]}, "properties": {"name": 459, "address": "Avenida Inajar De Souza"}}, {"type": "Feature", "geometry": {"type": "Point", "coordinates": [-46.672779, -23.462766]}, "properties": {"name": 460, "address": "Avenida Inajar De Souza"}}, {"type": "Feature", "geometry": {"type": "Point", "coordinates": [-46.690214, -23.475044]}, "properties": {"name": 461, "address": "Rua Parapua"}}, {"type": "Feature", "geometry": {"type": "Point", "coordinates": [-46.697018, -23.44829]}, "properties": {"name": 462, "address": "Rua Eduardo Costa"}}, {"type": "Feature", "geometry": {"type": "Point", "coordinates": [-46.696982, -23.450811]}, "properties": {"name": 463, "address": "Rua Feliciano Malabia"}}, {"type": "Feature", "geometry": {"type": "Point", "coordinates": [-46.707431, -23.441793]}, "properties": {"name": 464, "address": "Avenida Deputado Cantídio Sampaio"}}, {"type": "Feature", "geometry": {"type": "Point", "coordinates": [-46.69971, -23.457648]}, "properties": {"name": 465, "address": "Rua Manoel Bolivar"}}, {"type": "Feature", "geometry": {"type": "Point", "coordinates": [-46.695103, -23.458673]}, "properties": {"name": 466, "address": "Rua Alfredo Lucio"}}, {"type": "Feature", "geometry": {"type": "Point", "coordinates": [-46.692922, -23.461328]}, "properties": {"name": 467, "address": "Rua Do Outono"}}, {"type": "Feature", "geometry": {"type": "Point", "coordinates": [-46.694224, -23.464974]}, "properties": {"name": 468, "address": "Rua Joaquim Ferreira Da Rocha"}}, {"type": "Feature", "geometry": {"type": "Point", "coordinates": [-46.690966, -23.46776]}, "properties": {"name": 469, "address": "Rua Joaquim Ferreira Da Rocha"}}, {"type": "Feature", "geometry": {"type": "Point", "coordinates": [-46.689397, -23.468798]}, "properties": {"name": 470, "address": "Rua Joaquim Ferreira Da Rocha"}}, {"type": "Feature", "geometry": {"type": "Point", "coordinates": [-46.702902, -23.45682]}, "properties": {"name": 471, "address": "Rua Rosalvo Jose Da Silva"}}, {"type": "Feature", "geometry": {"type": "Point", "coordinates": [-46.700826, -23.456978]}, "properties": {"name": 472, "address": "Rua Aurelio Brasil Ribeiro"}}, {"type": "Feature", "geometry": {"type": "Point", "coordinates": [-46.701277, -23.463157]}, "properties": {"name": 473, "address": "Rua Domingos Vega"}}, {"type": "Feature", "geometry": {"type": "Point", "coordinates": [-46.697472, -23.458212]}, "properties": {"name": 474, "address": "Rua Rodolfo Pereira Lima"}}, {"type": "Feature", "geometry": {"type": "Point", "coordinates": [-46.705265, -23.444982]}, "properties": {"name": 475, "address": "Avenida Deputado Cantidio Sampaio"}}, {"type": "Feature", "geometry": {"type": "Point", "coordinates": [-46.694653, -23.466634]}, "properties": {"name": 476, "address": "Estrada Lazaro Amancio De Barros"}}, {"type": "Feature", "geometry": {"type": "Point", "coordinates": [-46.700532, -23.45611]}, "properties": {"name": 477, "address": "Rua Raimundo Carneiro"}}, {"type": "Feature", "geometry": {"type": "Point", "coordinates": [-46.702091, -23.456422]}, "properties": {"name": 478, "address": "Rua Aurelio Brasil Ribeiro"}}, {"type": "Feature", "geometry": {"type": "Point", "coordinates": [-46.696317, -23.457513]}, "properties": {"name": 479, "address": "Rua Rodolfo Pereira Lima"}}, {"type": "Feature", "geometry": {"type": "Point", "coordinates": [-46.700099, -23.45158]}, "properties": {"name": 480, "address": "Avenida Deputado Cantidio Sampaio"}}, {"type": "Feature", "geometry": {"type": "Point", "coordinates": [-46.701918, -23.459163]}, "properties": {"name": 481, "address": "Rua Aurelio Brasil Ribeiro"}}, {"type": "Feature", "geometry": {"type": "Point", "coordinates": [-46.699888, -23.452432]}, "properties": {"name": 482, "address": "Avenida Deputado Cantidio Sampaio"}}, {"type": "Feature", "geometry": {"type": "Point", "coordinates": [-46.688563, -23.462127]}, "properties": {"name": 483, "address": "Rua Manoel Nascimento Pinto"}}, {"type": "Feature", "geometry": {"type": "Point", "coordinates": [-46.677927, -23.467738]}, "properties": {"name": 484, "address": "Avenida Deputado Cantidio Sampaio"}}, {"type": "Feature", "geometry": {"type": "Point", "coordinates": [-46.698786, -23.46131]}, "properties": {"name": 485, "address": "Rua Jorge Pires Ramalho"}}, {"type": "Feature", "geometry": {"type": "Point", "coordinates": [-46.702888, -23.456957]}, "properties": {"name": 486, "address": "N/A"}}, {"type": "Feature", "geometry": {"type": "Point", "coordinates": [-46.709564, -23.460761]}, "properties": {"name": 487, "address": "Rua Braco Do Norte"}}, {"type": "Feature", "geometry": {"type": "Point", "coordinates": [-46.707932, -23.458216]}, "properties": {"name": 488, "address": "Rua Flores De Goias"}}, {"type": "Feature", "geometry": {"type": "Point", "coordinates": [-46.709415, -23.458966]}, "properties": {"name": 489, "address": "Rua Lagoa Da Serra"}}, {"type": "Feature", "geometry": {"type": "Point", "coordinates": [-46.709792, -23.459512]}, "properties": {"name": 490, "address": "Rua Sitio Da Abadia"}}, {"type": "Feature", "geometry": {"type": "Point", "coordinates": [-46.708628, -23.460389]}, "properties": {"name": 491, "address": "Rua Sitio Da Abadia"}}, {"type": "Feature", "geometry": {"type": "Point", "coordinates": [-46.711172, -23.461272]}, "properties": {"name": 492, "address": "Rua Aparecida Do Tabuado"}}, {"type": "Feature", "geometry": {"type": "Point", "coordinates": [-46.710816, -23.460789]}, "properties": {"name": 493, "address": "Rua Alto Tocantins"}}, {"type": "Feature", "geometry": {"type": "Point", "coordinates": [-46.712544, -23.460799]}, "properties": {"name": 494, "address": "Rua Alto Tocantins"}}, {"type": "Feature", "geometry": {"type": "Point", "coordinates": [-46.681042, -23.467164]}, "properties": {"name": 495, "address": "Avenida Guilherme De Almeida"}}, {"type": "Feature", "geometry": {"type": "Point", "coordinates": [-46.677205, -23.47027]}, "properties": {"name": 496, "address": "Rua Henry Charles Potel"}}, {"type": "Feature", "geometry": {"type": "Point", "coordinates": [-46.67635, -23.470512]}, "properties": {"name": 497, "address": "Avenida Deputado Cantidio Sampaio"}}, {"type": "Feature", "geometry": {"type": "Point", "coordinates": [-46.707211, -23.453188]}, "properties": {"name": 498, "address": "Rua Ilha De Itaparica"}}, {"type": "Feature", "geometry": {"type": "Point", "coordinates": [-46.699371, -23.452896]}, "properties": {"name": 499, "address": "Rua Talha Mar"}}, {"type": "Feature", "geometry": {"type": "Point", "coordinates": [-46.699579, -23.44667]}, "properties": {"name": 500, "address": "Rua Cirilo Correia"}}, {"type": "Feature", "geometry": {"type": "Point", "coordinates": [-46.696064, -23.449545]}, "properties": {"name": 501, "address": "Rua Fortunato Devoto"}}, {"type": "Feature", "geometry": {"type": "Point", "coordinates": [-46.694773, -23.464778]}, "properties": {"name": 502, "address": "Rua Itaipava"}}, {"type": "Feature", "geometry": {"type": "Point", "coordinates": [-46.698057, -23.459962]}, "properties": {"name": 503, "address": "Rua Benedito Egidio Barbosa"}}, {"type": "Feature", "geometry": {"type": "Point", "coordinates": [-46.683132, -23.468041]}, "properties": {"name": 504, "address": "Rua Pajucara"}}, {"type": "Feature", "geometry": {"type": "Point", "coordinates": [-46.689312, -23.466252]}, "properties": {"name": 505, "address": "Rua Paramirim"}}, {"type": "Feature", "geometry": {"type": "Point", "coordinates": [-46.697529, -23.457992]}, "properties": {"name": 506, "address": "Rua Rodolfo Pereira Lima"}}, {"type": "Feature", "geometry": {"type": "Point", "coordinates": [-46.696332, -23.457426]}, "properties": {"name": 507, "address": "Rua Paulo Limoeiro"}}, {"type": "Feature", "geometry": {"type": "Point", "coordinates": [-46.683246, -23.472566]}, "properties": {"name": 508, "address": "Avenida Joao Paulo I"}}, {"type": "Feature", "geometry": {"type": "Point", "coordinates": [-46.678386, -23.455884]}, "properties": {"name": 509, "address": "Rua Manoel Aquilino Dos Santos"}}, {"type": "Feature", "geometry": {"type": "Point", "coordinates": [-46.685859, -23.477925]}, "properties": {"name": 510, "address": "Classicismo"}}, {"type": "Feature", "geometry": {"type": "Point", "coordinates": [-46.684909, -23.456767]}, "properties": {"name": 511, "address": "Rua Rosa Alboni"}}, {"type": "Feature", "geometry": {"type": "Point", "coordinates": [-46.671106, -23.473455]}, "properties": {"name": 512, "address": "Avenida Deputado Cantidio Sampaio"}}, {"type": "Feature", "geometry": {"type": "Point", "coordinates": [-46.683462, -23.455758]}, "properties": {"name": 513, "address": "Rua Rosa Alboni"}}, {"type": "Feature", "geometry": {"type": "Point", "coordinates": [-46.694633, -23.466738]}, "properties": {"name": 514, "address": "Estrada Lazaro Amancio De Barros"}}, {"type": "Feature", "geometry": {"type": "Point", "coordinates": [-46.681418, -23.460739]}, "properties": {"name": 515, "address": "Rua Carlos Lamarca"}}, {"type": "Feature", "geometry": {"type": "Point", "coordinates": [-46.699265, -23.448241]}, "properties": {"name": 516, "address": "Rua Emilio Castro"}}, {"type": "Feature", "geometry": {"type": "Point", "coordinates": [-46.699173, -23.448284]}, "properties": {"name": 517, "address": "Rua Emilio Castro"}}, {"type": "Feature", "geometry": {"type": "Point", "coordinates": [-46.697844, -23.450413]}, "properties": {"name": 518, "address": "Rua Emilio Castro"}}, {"type": "Feature", "geometry": {"type": "Point", "coordinates": [-46.697927, -23.450362]}, "properties": {"name": 519, "address": "Rua Emilio Castro"}}, {"type": "Feature", "geometry": {"type": "Point", "coordinates": [-46.698691, -23.447262]}, "properties": {"name": 520, "address": "Rua Daniel Cerri"}}, {"type": "Feature", "geometry": {"type": "Point", "coordinates": [-46.699261, -23.449186]}, "properties": {"name": 521, "address": "Rua Emilio Castro"}}, {"type": "Feature", "geometry": {"type": "Point", "coordinates": [-46.697949, -23.46764]}, "properties": {"name": 522, "address": "Rua Domingos Vega"}}, {"type": "Feature", "geometry": {"type": "Point", "coordinates": [-46.705739, -23.457445]}, "properties": {"name": 523, "address": "Rua Aparecida Do Tabuado"}}, {"type": "Feature", "geometry": {"type": "Point", "coordinates": [-46.705836, -23.457633]}, "properties": {"name": 524, "address": "Rua Aparecida Do Tabuado"}}, {"type": "Feature", "geometry": {"type": "Point", "coordinates": [-46.706197, -23.455774]}, "properties": {"name": 525, "address": "Estrada Da Cachoeira"}}, {"type": "Feature", "geometry": {"type": "Point", "coordinates": [-46.705835, -23.457018]}, "properties": {"name": 526, "address": "Estrada Da Cachoeira"}}, {"type": "Feature", "geometry": {"type": "Point", "coordinates": [-46.705992, -23.456678]}, "properties": {"name": 527, "address": "Estrada Da Cachoeira"}}, {"type": "Feature", "geometry": {"type": "Point", "coordinates": [-46.689843, -23.475049]}, "properties": {"name": 528, "address": "Rua Barão De Santo Ângelo"}}, {"type": "Feature", "geometry": {"type": "Point", "coordinates": [-46.689982, -23.474955]}, "properties": {"name": 529, "address": "Rua Barão De Santo Ângelo"}}, {"type": "Feature", "geometry": {"type": "Point", "coordinates": [-46.678827, -23.458993]}, "properties": {"name": 530, "address": "Rua Jose Antonio Do Nascimento"}}, {"type": "Feature", "geometry": {"type": "Point", "coordinates": [-46.677997, -23.459017]}, "properties": {"name": 531, "address": "Rua Agenor Alves Meira"}}, {"type": "Feature", "geometry": {"type": "Point", "coordinates": [-46.680113, -23.457904]}, "properties": {"name": 532, "address": "Rua Agenor Alves Meira"}}, {"type": "Feature", "geometry": {"type": "Point", "coordinates": [-46.690214, -23.47485]}, "properties": {"name": 533, "address": "Rua Parapua"}}, {"type": "Feature", "geometry": {"type": "Point", "coordinates": [-46.683767, -23.463444]}, "properties": {"name": 534, "address": "Rua Padre Manuel Honorato"}}, {"type": "Feature", "geometry": {"type": "Point", "coordinates": [-46.683711, -23.463649]}, "properties": {"name": 535, "address": "Rua Padre Manuel Honorato"}}, {"type": "Feature", "geometry": {"type": "Point", "coordinates": [-46.684929, -23.463016]}, "properties": {"name": 536, "address": "Rua Nicia Coutinho Patricio"}}, {"type": "Feature", "geometry": {"type": "Point", "coordinates": [-46.68499, -23.463006]}, "properties": {"name": 537, "address": "Rua Nicia Coutinho Patricio"}}, {"type": "Feature", "geometry": {"type": "Point", "coordinates": [-46.683477, -23.464959]}, "properties": {"name": 538, "address": "Rua Nicia Coutinho Patricio"}}, {"type": "Feature", "geometry": {"type": "Point", "coordinates": [-46.683381, -23.46516]}, "properties": {"name": 539, "address": "Rua Nicia Coutinho Patricio"}}, {"type": "Feature", "geometry": {"type": "Point", "coordinates": [-46.684195, -23.47349]}, "properties": {"name": 540, "address": "Rua Jose Natividade Saldanha"}}, {"type": "Feature", "geometry": {"type": "Point", "coordinates": [-46.687394, -23.452841]}, "properties": {"name": 541, "address": "Rua Nortelandia"}}, {"type": "Feature", "geometry": {"type": "Point", "coordinates": [-46.708558, -23.439025]}, "properties": {"name": 542, "address": "Rua Monte Alegre Do Sul"}}, {"type": "Feature", "geometry": {"type": "Point", "coordinates": [-46.709624, -23.439352]}, "properties": {"name": 543, "address": "Rua Monte Alegre Do Sul"}}, {"type": "Feature", "geometry": {"type": "Point", "coordinates": [-46.708376, -23.461535]}, "properties": {"name": 544, "address": "Rua Braco Do Norte"}}, {"type": "Feature", "geometry": {"type": "Point", "coordinates": [-46.695853, -23.451353]}, "properties": {"name": 545, "address": "Rua Feliciano Malabia"}}, {"type": "Feature", "geometry": {"type": "Point", "coordinates": [-46.695976, -23.451403]}, "properties": {"name": 546, "address": "Rua Feliciano Malabia"}}, {"type": "Feature", "geometry": {"type": "Point", "coordinates": [-46.690602, -23.467121]}, "properties": {"name": 547, "address": "Rua Virajuba"}}, {"type": "Feature", "geometry": {"type": "Point", "coordinates": [-46.692457, -23.453643]}, "properties": {"name": 548, "address": "Rua Geraldo Marino"}}, {"type": "Feature", "geometry": {"type": "Point", "coordinates": [-46.694871, -23.453603]}, "properties": {"name": 549, "address": "Rua Henriqueta Pantaleao"}}, {"type": "Feature", "geometry": {"type": "Point", "coordinates": [-46.694438, -23.452357]}, "properties": {"name": 550, "address": "Rua Antonio Rocha Mattos Filho"}}, {"type": "Feature", "geometry": {"type": "Point", "coordinates": [-46.692926, -23.455741]}, "properties": {"name": 551, "address": "Avenida Deputado Cantidio Sampaio"}}, {"type": "Feature", "geometry": {"type": "Point", "coordinates": [-46.676771, -23.451501]}, "properties": {"name": 552, "address": "Avenida General Penha Brasil"}}, {"type": "Feature", "geometry": {"type": "Point", "coordinates": [-46.677031, -23.451368]}, "properties": {"name": 553, "address": "Avenida General Penha Brasil"}}, {"type": "Feature", "geometry": {"type": "Point", "coordinates": [-46.687532, -23.45047]}, "properties": {"name": 554, "address": "Rua Firminopolis"}}, {"type": "Feature", "geometry": {"type": "Point", "coordinates": [-46.699146, -23.447268]}, "properties": {"name": 555, "address": "Rua Emilio Castro"}}, {"type": "Feature", "geometry": {"type": "Point", "coordinates": [-46.700001, -23.451912]}, "properties": {"name": 556, "address": "Avenida Deputado Cantidio Sampaio"}}, {"type": "Feature", "geometry": {"type": "Point", "coordinates": [-46.705627, -23.572108]}, "properties": {"name": 557, "address": "Avenida Vital Brasil"}}, {"type": "Feature", "geometry": {"type": "Point", "coordinates": [-46.713117, -23.569896]}, "properties": {"name": 558, "address": "Avenida Vital Brasil"}}, {"type": "Feature", "geometry": {"type": "Point", "coordinates": [-46.715977, -23.569689]}, "properties": {"name": 559, "address": "Avenida Corifeu De Azevedo Marques"}}, {"type": "Feature", "geometry": {"type": "Point", "coordinates": [-46.717878, -23.570449]}, "properties": {"name": 560, "address": "Avenida Corifeu De Azevedo Marques"}}, {"type": "Feature", "geometry": {"type": "Point", "coordinates": [-46.722467, -23.577467]}, "properties": {"name": 561, "address": "Rua Hugo Carotini"}}, {"type": "Feature", "geometry": {"type": "Point", "coordinates": [-46.720697, -23.576456]}, "properties": {"name": 562, "address": "Rua Domingos Barbieri"}}, {"type": "Feature", "geometry": {"type": "Point", "coordinates": [-46.720884, -23.576781]}, "properties": {"name": 563, "address": "Rua Domingos Barbieri"}}, {"type": "Feature", "geometry": {"type": "Point", "coordinates": [-46.72056, -23.578371]}, "properties": {"name": 564, "address": "Rua Domingos Barbieri"}}, {"type": "Feature", "geometry": {"type": "Point", "coordinates": [-46.720654, -23.577374]}, "properties": {"name": 565, "address": "Rua Domingos Barbieri"}}, {"type": "Feature", "geometry": {"type": "Point", "coordinates": [-46.727929, -23.584305]}, "properties": {"name": 566, "address": "Avenida Eliseu De Almeida"}}, {"type": "Feature", "geometry": {"type": "Point", "coordinates": [-46.731716, -23.573582]}, "properties": {"name": 567, "address": "Avenida Corifeu De Azevedo Marques"}}, {"type": "Feature", "geometry": {"type": "Point", "coordinates": [-46.729958, -23.574944]}, "properties": {"name": 568, "address": "Avenida Corifeu De Azevedo Marques"}}, {"type": "Feature", "geometry": {"type": "Point", "coordinates": [-46.727739, -23.574643]}, "properties": {"name": 569, "address": "Tutti Pizza"}}, {"type": "Feature", "geometry": {"type": "Point", "coordinates": [-46.722415, -23.572391]}, "properties": {"name": 570, "address": "Avenida Corifeu De Azevedo Marques"}}, {"type": "Feature", "geometry": {"type": "Point", "coordinates": [-46.725138, -23.57347]}, "properties": {"name": 571, "address": "Avenida Corifeu De Azevedo Marques"}}, {"type": "Feature", "geometry": {"type": "Point", "coordinates": [-46.71954, -23.562811]}, "properties": {"name": 572, "address": "Avenida Professor Lineu Prestes"}}, {"type": "Feature", "geometry": {"type": "Point", "coordinates": [-46.730388, -23.566487]}, "properties": {"name": 573, "address": "Rua Do Matao"}}, {"type": "Feature", "geometry": {"type": "Point", "coordinates": [-46.730222, -23.566292]}, "properties": {"name": 574, "address": "Rua Do Matao"}}, {"type": "Feature", "geometry": {"type": "Point", "coordinates": [-46.730889, -23.560617]}, "properties": {"name": 575, "address": "Rua Do Matao"}}, {"type": "Feature", "geometry": {"type": "Point", "coordinates": [-46.730878, -23.560774]}, "properties": {"name": 576, "address": "Rua Do Matao"}}, {"type": "Feature", "geometry": {"type": "Point", "coordinates": [-46.731792, -23.552523]}, "properties": {"name": 577, "address": "Avenida Professor Almeida Prado"}}, {"type": "Feature", "geometry": {"type": "Point", "coordinates": [-46.708048, -23.571874]}, "properties": {"name": 578, "address": "Rua Pirajussa"}}, {"type": "Feature", "geometry": {"type": "Point", "coordinates": [-46.739727, -23.584394]}, "properties": {"name": 579, "address": "Rua Ari Dos Santos"}}, {"type": "Feature", "geometry": {"type": "Point", "coordinates": [-46.712983, -23.57616]}, "properties": {"name": 580, "address": "Avenida Eliseu De Almeida"}}, {"type": "Feature", "geometry": {"type": "Point", "coordinates": [-46.704831, -23.571687]}, "properties": {"name": 581, "address": "Avenida Valdemar Ferreira Da Silva"}}, {"type": "Feature", "geometry": {"type": "Point", "coordinates": [-46.707432, -23.571534]}, "properties": {"name": 582, "address": "Avenida Vital Brasil"}}, {"type": "Feature", "geometry": {"type": "Point", "coordinates": [-46.708563, -23.571812]}, "properties": {"name": 583, "address": "Local Lanches"}}, {"type": "Feature", "geometry": {"type": "Point", "coordinates": [-46.709027, -23.572151]}, "properties": {"name": 584, "address": "Rua Mmdc"}}, {"type": "Feature", "geometry": {"type": "Point", "coordinates": [-46.70966, -23.570983]}, "properties": {"name": 585, "address": "Avenida Vital Brasil"}}, {"type": "Feature", "geometry": {"type": "Point", "coordinates": [-46.709319, -23.572057]}, "properties": {"name": 586, "address": "Rua Mmdc"}}, {"type": "Feature", "geometry": {"type": "Point", "coordinates": [-46.7061, -23.570283]}, "properties": {"name": 587, "address": "Avenida Valdemar Ferreira Da Silva"}}, {"type": "Feature", "geometry": {"type": "Point", "coordinates": [-46.733369, -23.576442]}, "properties": {"name": 588, "address": "Rua Cabral De Menezes"}}, {"type": "Feature", "geometry": {"type": "Point", "coordinates": [-46.708801, -23.572264]}, "properties": {"name": 589, "address": "Rua Mmdc"}}, {"type": "Feature", "geometry": {"type": "Point", "coordinates": [-46.720115, -23.571306]}, "properties": {"name": 590, "address": "Avenida Corifeu De Azevedo Marques"}}, {"type": "Feature", "geometry": {"type": "Point", "coordinates": [-46.742755, -23.584862]}, "properties": {"name": 591, "address": "Rua Ari Aps"}}, {"type": "Feature", "geometry": {"type": "Point", "coordinates": [-46.708235, -23.571895]}, "properties": {"name": 592, "address": "Biscicletário - Estação Butantã (Linha Amarela)"}}, {"type": "Feature", "geometry": {"type": "Point", "coordinates": [-46.732017, -23.552258]}, "properties": {"name": 593, "address": "Avenida Professor Almeida Prado"}}, {"type": "Feature", "geometry": {"type": "Point", "coordinates": [-46.71155, -23.571744]}, "properties": {"name": 594, "address": "Paolucci  Tintas"}}, {"type": "Feature", "geometry": {"type": "Point", "coordinates": [-46.709227, -23.571255]}, "properties": {"name": 595, "address": "Rua Camargo"}}, {"type": "Feature", "geometry": {"type": "Point", "coordinates": [-46.711684, -23.567669]}, "properties": {"name": 596, "address": "Rua Alvarenga"}}, {"type": "Feature", "geometry": {"type": "Point", "coordinates": [-46.708569, -23.571808]}, "properties": {"name": 597, "address": "Local Lanches"}}, {"type": "Feature", "geometry": {"type": "Point", "coordinates": [-46.709294, -23.571591]}, "properties": {"name": 598, "address": "Rua Camargo"}}, {"type": "Feature", "geometry": {"type": "Point", "coordinates": [-46.708078, -23.572098]}, "properties": {"name": 599, "address": "Rua Pirajussa"}}, {"type": "Feature", "geometry": {"type": "Point", "coordinates": [-46.713061, -23.564158]}, "properties": {"name": 600, "address": "Avenida Professor Mello De Moraes"}}, {"type": "Feature", "geometry": {"type": "Point", "coordinates": [-46.713258, -23.561055]}, "properties": {"name": 601, "address": "Avenida Professor Mello De Moraes"}}, {"type": "Feature", "geometry": {"type": "Point", "coordinates": [-46.712901, -23.560711]}, "properties": {"name": 602, "address": "Avenida Professor Mello De Moraes"}}, {"type": "Feature", "geometry": {"type": "Point", "coordinates": [-46.719783, -23.557407]}, "properties": {"name": 603, "address": "Avenida Professor Mello De Moraes"}}, {"type": "Feature", "geometry": {"type": "Point", "coordinates": [-46.720425, -23.55669]}, "properties": {"name": 604, "address": "Avenida Professor Mello De Moraes"}}, {"type": "Feature", "geometry": {"type": "Point", "coordinates": [-46.72346, -23.586131]}, "properties": {"name": 605, "address": "Avenida Professor Francisco Morato"}}, {"type": "Feature", "geometry": {"type": "Point", "coordinates": [-46.723995, -23.585744]}, "properties": {"name": 606, "address": "Avenida Deputado Jacob Salvador Zveibil"}}, {"type": "Feature", "geometry": {"type": "Point", "coordinates": [-46.72397, -23.585785]}, "properties": {"name": 607, "address": "Avenida Deputado Jacob Salvador Zveibil"}}, {"type": "Feature", "geometry": {"type": "Point", "coordinates": [-46.724251, -23.585503]}, "properties": {"name": 608, "address": "Avenida Deputado Jacob Salvador Zveibil"}}, {"type": "Feature", "geometry": {"type": "Point", "coordinates": [-46.724134, -23.58562]}, "properties": {"name": 609, "address": "Avenida Deputado Jacob Salvador Zveibil"}}, {"type": "Feature", "geometry": {"type": "Point", "coordinates": [-46.724204, -23.585491]}, "properties": {"name": 610, "address": "Avenida Deputado Jacob Salvador Zveibil"}}, {"type": "Feature", "geometry": {"type": "Point", "coordinates": [-46.724137, -23.585562]}, "properties": {"name": 611, "address": "Avenida Deputado Jacob Salvador Zveibil"}}, {"type": "Feature", "geometry": {"type": "Point", "coordinates": [-46.730249, -23.575784]}, "properties": {"name": 612, "address": "Rua Pereira Do Lago"}}, {"type": "Feature", "geometry": {"type": "Point", "coordinates": [-46.670002, -23.476039]}, "properties": {"name": 613, "address": "Avenida Deputado Emílio Carlos"}}, {"type": "Feature", "geometry": {"type": "Point", "coordinates": [-46.667505, -23.476636]}, "properties": {"name": 614, "address": "Avenida Joao Marcelino Branco"}}, {"type": "Feature", "geometry": {"type": "Point", "coordinates": [-46.661898, -23.469203]}, "properties": {"name": 615, "address": "Avenida Parada Pinto"}}, {"type": "Feature", "geometry": {"type": "Point", "coordinates": [-46.657056, -23.473392]}, "properties": {"name": 616, "address": "Rua Agua Preta"}}, {"type": "Feature", "geometry": {"type": "Point", "coordinates": [-46.666943, -23.467816]}, "properties": {"name": 617, "address": "Rua Gomes Leal"}}, {"type": "Feature", "geometry": {"type": "Point", "coordinates": [-46.671108, -23.460892]}, "properties": {"name": 618, "address": "Avenida General Penha Brasil"}}, {"type": "Feature", "geometry": {"type": "Point", "coordinates": [-46.664317, -23.465942]}, "properties": {"name": 619, "address": "Rua Eugenio De Castro"}}, {"type": "Feature", "geometry": {"type": "Point", "coordinates": [-46.658007, -23.454702]}, "properties": {"name": 620, "address": "Rua Solar"}}, {"type": "Feature", "geometry": {"type": "Point", "coordinates": [-46.657858, -23.454583]}, "properties": {"name": 621, "address": "Rua Solar"}}, {"type": "Feature", "geometry": {"type": "Point", "coordinates": [-46.660413, -23.462206]}, "properties": {"name": 622, "address": "Rua Afonso Lopes Vieira"}}, {"type": "Feature", "geometry": {"type": "Point", "coordinates": [-46.659173, -23.469648]}, "properties": {"name": 623, "address": "Avenida Parada Pinto"}}, {"type": "Feature", "geometry": {"type": "Point", "coordinates": [-46.658461, -23.463881]}, "properties": {"name": 624, "address": "Passagem Da Rua 2 Pra Avenida Nova No Peri"}}, {"type": "Feature", "geometry": {"type": "Point", "coordinates": [-46.655861, -23.465103]}, "properties": {"name": 625, "address": "Rua Afonso Lopes Vieira"}}, {"type": "Feature", "geometry": {"type": "Point", "coordinates": [-46.658432, -23.463276]}, "properties": {"name": 626, "address": "Rua Afonso Lopes Vieira"}}, {"type": "Feature", "geometry": {"type": "Point", "coordinates": [-46.662549, -23.46278]}, "properties": {"name": 627, "address": "Rua Afonso Lopes Vieira"}}, {"type": "Feature", "geometry": {"type": "Point", "coordinates": [-46.662524, -23.465915]}, "properties": {"name": 628, "address": "Rua Gomes Leal"}}, {"type": "Feature", "geometry": {"type": "Point", "coordinates": [-46.652287, -23.454564]}, "properties": {"name": 629, "address": "Avenida Francisco Machado Da Silva"}}, {"type": "Feature", "geometry": {"type": "Point", "coordinates": [-46.669768, -23.457053]}, "properties": {"name": 630, "address": "Rua Dario Vilares Barbosa"}}, {"type": "Feature", "geometry": {"type": "Point", "coordinates": [-46.6591, -23.454444]}, "properties": {"name": 631, "address": "Avenida Francisco Machado Da Silva"}},